[
  {
    "location":"RockyTop",
    "lat":38.2898512,
    "lng":-78.7136328
  },
  {
    "location":"Texas, USA",
    "lat":31.9685988,
    "lng":-99.9018131
  },
  {
    "location":"Lake Havasu City, AZ",
    "lat":34.483901,
    "lng":-114.3224548
  },
  {
    "location":"Missouri",
    "lat":37.9642529,
    "lng":-91.8318334
  },
  {
    "location":"Luxembourg",
    "lat":49.815273,
    "lng":6.129582999999999
  },
  {
    "location":"Central Finland",
    "lat":62.5666743,
    "lng":25.5549445
  },
  {
    "location":"Upstate New York",
    "lat":41.60021450000001,
    "lng":-74.10669229999999
  },
  {
    "location":"Athens, Greece",
    "lat":37.983917,
    "lng":23.7293599
  },
  {
    "location":"Norfolk Nebraska",
    "lat":42.03272339999999,
    "lng":-97.41375529999999
  },
  {
    "location":"Glendale, Az",
    "lat":33.5386523,
    "lng":-112.1859866
  },
  {
    "location":"Southwest Virginia",
    "lat":-27.3821097,
    "lng":153.0624323
  },
  {
    "location":"Columbus, GA",
    "lat":32.4609764,
    "lng":-84.9877094
  },
  {
    "location":"Santa Clarita, CA",
    "lat":34.3916641,
    "lng":-118.542586
  },
  {
    "location":"i love emmy",
    "lat":48.9030544,
    "lng":2.3225045
  },
  {
    "location":"Valera, Trujillo",
    "lat":9.3191109,
    "lng":-70.60329949999999
  },
  {
    "location":"Halifax, Nova Scotia",
    "lat":44.6488625,
    "lng":-63.5753196
  },
  {
    "location":"Saint-Brieuc, FRANCE",
    "lat":48.51418,
    "lng":-2.765835
  },
  {
    "location":"Back to Kyoto",
    "lat":35.0116363,
    "lng":135.7680294
  },
  {
    "location":"Lillian, AL",
    "lat":30.4142478,
    "lng":-87.4360804
  },
  {
    "location":"Paris",
    "lat":48.856614,
    "lng":2.3522219
  },
  {
    "location":"Zaragoza, Espa a",
    "lat":41.6488226,
    "lng":-0.8890853
  },
  {
    "location":"Johns Creek, Georgia",
    "lat":34.0289259,
    "lng":-84.198579
  },
  {
    "location":"Fla",
    "lat":27.6648274,
    "lng":-81.5157535
  },
  {
    "location":"Dublin City, Ireland",
    "lat":53.3498053,
    "lng":-6.2603097
  },
  {
    "location":"Detroit",
    "lat":42.331427,
    "lng":-83.0457538
  },
  {
    "location":"los angeles, california",
    "lat":34.0522342,
    "lng":-118.2436849
  },
  {
    "location":"Wicklow, Ireland",
    "lat":52.9808207,
    "lng":-6.044588999999999
  },
  {
    "location":"UK, Birmingham.",
    "lat":52.48624299999999,
    "lng":-1.890401
  },
  {
    "location":"Marietta, Georgia",
    "lat":33.95260200000001,
    "lng":-84.5499327
  },
  {
    "location":"Long Beach, CA",
    "lat":33.7700504,
    "lng":-118.1937395
  },
  {
    "location":"Baton Rouge, Louisiana",
    "lat":30.4582829,
    "lng":-91.1403196
  },
  {
    "location":"Los Gatos, CA",
    "lat":37.2358078,
    "lng":-121.9623751
  },
  {
    "location":"Haverhill MA",
    "lat":42.7762015,
    "lng":-71.0772796
  },
  {
    "location":"Oklahoma, USA",
    "lat":35.0077519,
    "lng":-97.092877
  },
  {
    "location":"New Haven, CT",
    "lat":41.308274,
    "lng":-72.9278835
  },
  {
    "location":"O-H-I-O",
    "lat":29.4850089,
    "lng":57.64390479999999
  },
  {
    "location":"Durham uk",
    "lat":54.77525,
    "lng":-1.584852
  },
  {
    "location":"Golden, CO",
    "lat":39.755543,
    "lng":-105.2210997
  },
  {
    "location":"California, USA",
    "lat":36.778261,
    "lng":-119.4179324
  },
  {
    "location":"San Marcos, TX",
    "lat":29.8832749,
    "lng":-97.9413941
  },
  {
    "location":"Dalarna",
    "lat":61.0917012,
    "lng":14.6663653
  },
  {
    "location":"Woodville , Ohio",
    "lat":41.4514404,
    "lng":-83.3657601
  },
  {
    "location":"Gastonia NC",
    "lat":35.262082,
    "lng":-81.18730049999999
  },
  {
    "location":"Sonoma County, CA",
    "lat":38.5779555,
    "lng":-122.9888319
  },
  {
    "location":"11206",
    "lat":40.7047738,
    "lng":-73.9418603
  },
  {
    "location":"England  Great Britain",
    "lat":52.3555177,
    "lng":-1.1743197
  },
  {
    "location":"San Jose/Bay Area",
    "lat":37.3382082,
    "lng":-121.8863286
  },
  {
    "location":"Morgantown, WV",
    "lat":39.629526,
    "lng":-79.95589679999999
  },
  {
    "location":"Pittsburgh, Pa.",
    "lat":40.44062479999999,
    "lng":-79.9958864
  },
  {
    "location":"DC - MD - IL - IA",
    "lat":41.8780025,
    "lng":-93.097702
  },
  {
    "location":"Chicago at the moment then TX.",
    "lat":31.9685988,
    "lng":-99.9018131
  },
  {
    "location":"FayetteChill AR!!",
    "lat":35.20105,
    "lng":-91.8318334
  },
  {
    "location":"Ohio.",
    "lat":40.4172871,
    "lng":-82.90712300000001
  },
  {
    "location":"Liberal in the South",
    "lat":37.0430812,
    "lng":-100.920999
  },
  {
    "location":"United States",
    "lat":37.09024,
    "lng":-95.712891
  },
  {
    "location":"Western Washington USA",
    "lat":42.3576233,
    "lng":-73.102012
  },
  {
    "location":"718/212. 315. 631. Bklyn, NY",
    "lat":40.6985442,
    "lng":-73.9888496
  },
  {
    "location":"Portland/Cincinnati",
    "lat":39.1031182,
    "lng":-84.5120196
  },
  {
    "location":"Portland, Oregon, USA",
    "lat":45.5230622,
    "lng":-122.6764816
  },
  {
    "location":"Made in the USA",
    "lat":39.4645636,
    "lng":-84.401814
  },
  {
    "location":"Greater Seattle",
    "lat":38.6371679,
    "lng":-90.24191100000002
  },
  {
    "location":"Oakley, CA",
    "lat":37.9974219,
    "lng":-121.7124536
  },
  {
    "location":"Milano",
    "lat":45.4654219,
    "lng":9.1859243
  },
  {
    "location":"USA",
    "lat":37.09024,
    "lng":-95.712891
  },
  {
    "location":"Oxford, MS",
    "lat":34.3664951,
    "lng":-89.5192484
  },
  {
    "location":"Fredericksburg, VA",
    "lat":38.3031837,
    "lng":-77.4605399
  },
  {
    "location":"REPUBLIC  OF  TEXAS",
    "lat":37.1239659,
    "lng":-93.431783
  },
  {
    "location":"NYC #LongIsland-Atlantic~~",
    "lat":40.7127837,
    "lng":-74.0059413
  },
  {
    "location":"Centre. Ala",
    "lat":34.1520406,
    "lng":-85.67885310000001
  },
  {
    "location":"California, USA + Philippines",
    "lat":35.1350674,
    "lng":-119.4728524
  },
  {
    "location":"Normal",
    "lat":40.5142026,
    "lng":-88.9906312
  },
  {
    "location":"Midland, MI",
    "lat":43.6155825,
    "lng":-84.2472116
  },
  {
    "location":"San Antonio",
    "lat":29.4241219,
    "lng":-98.49362819999999
  },
  {
    "location":"Tennessee",
    "lat":35.5174913,
    "lng":-86.5804473
  },
  {
    "location":"Kampala Uganda",
    "lat":0.3475964,
    "lng":32.5825197
  },
  {
    "location":"Ireland/India/USA",
    "lat":32.728725,
    "lng":-117.1526247
  },
  {
    "location":"Planet Earth",
    "lat":53.35701770000001,
    "lng":-2.0853567
  },
  {
    "location":"San Diego, California",
    "lat":32.715738,
    "lng":-117.1610838
  },
  {
    "location":"North Georgia",
    "lat":32.1656221,
    "lng":-82.9000751
  },
  {
    "location":"Philadelphia, PA",
    "lat":39.9525839,
    "lng":-75.1652215
  },
  {
    "location":"Sant Feliu, Barcelona.",
    "lat":41.3659375,
    "lng":2.0883608
  },
  {
    "location":"ohio",
    "lat":40.4172871,
    "lng":-82.90712300000001
  },
  {
    "location":"Bellingham Washington",
    "lat":48.74908,
    "lng":-122.4781473
  },
  {
    "location":"God's Country",
    "lat":41.5519547,
    "lng":-94.097168
  },
  {
    "location":"Lagos, Nigeria",
    "lat":6.5243793,
    "lng":3.3792057
  },
  {
    "location":"Stl",
    "lat":40.453868,
    "lng":-105.0629797
  },
  {
    "location":"Land of Poltical Fools/Texas",
    "lat":31.9685988,
    "lng":-99.9018131
  },
  {
    "location":"The future",
    "lat":35.8760257,
    "lng":-90.1748459
  },
  {
    "location":"Shitcago, Crook County IL",
    "lat":40.6331249,
    "lng":-89.3985283
  },
  {
    "location":"Kansas City, MO",
    "lat":39.0997265,
    "lng":-94.5785667
  },
  {
    "location":"east coast of fl.",
    "lat":30.3325748,
    "lng":-81.3981283
  },
  {
    "location":"went east",
    "lat":53.5642238,
    "lng":-1.1537281
  },
  {
    "location":"Oregon Coast",
    "lat":44.1219978,
    "lng":-124.1264319
  },
  {
    "location":"Anaheim Hills, California",
    "lat":33.8508021,
    "lng":-117.7490656
  },
  {
    "location":"alabama",
    "lat":32.3182314,
    "lng":-86.902298
  },
  {
    "location":"Akko, Israel",
    "lat":32.933052,
    "lng":35.082678
  },
  {
    "location":"south beach, florida",
    "lat":27.5897323,
    "lng":-80.3331127
  },
  {
    "location":"Denver, Colorado, USA",
    "lat":39.7392358,
    "lng":-104.990251
  },
  {
    "location":"Kitchener, Ontario",
    "lat":43.4129238,
    "lng":-80.47714719999999
  },
  {
    "location":"Clayton, NC",
    "lat":35.650711,
    "lng":-78.4563914
  },
  {
    "location":"Greater NY Area",
    "lat":40.7074927,
    "lng":-73.16962529999999
  },
  {
    "location":"South Elgin, IL",
    "lat":41.9941938,
    "lng":-88.29229959999999
  },
  {
    "location":"Fort Worth, Texas  (#DFW #TX)",
    "lat":32.7554883,
    "lng":-97.3307658
  },
  {
    "location":"Storm Lake, IA",
    "lat":42.6430359,
    "lng":-95.2019399
  },
  {
    "location":"Oakland County, Michigan, USA",
    "lat":42.59219239999999,
    "lng":-83.33618799999999
  },
  {
    "location":"Key West, FL",
    "lat":24.5550593,
    "lng":-81.7799871
  },
  {
    "location":"TURN TEXAS BLUE",
    "lat":14.6148675,
    "lng":121.1006996
  },
  {
    "location":"Taylors, SC",
    "lat":34.9203946,
    "lng":-82.2962268
  },
  {
    "location":"Portland, OR",
    "lat":45.5230622,
    "lng":-122.6764816
  },
  {
    "location":"TN /FL",
    "lat":30.4568249,
    "lng":-84.3462861
  },
  {
    "location":"Detroit Washington DC Vegas",
    "lat":36.1699412,
    "lng":-115.1398296
  },
  {
    "location":"Hamburg",
    "lat":53.5510846,
    "lng":9.9936818
  },
  {
    "location":"Madison Heights, VA",
    "lat":37.4309757,
    "lng":-79.1230795
  },
  {
    "location":"Palm Desert, CA",
    "lat":33.7222445,
    "lng":-116.3744556
  },
  {
    "location":"Penna.",
    "lat":44.075931,
    "lng":1.73252
  },
  {
    "location":"Florida",
    "lat":27.6648274,
    "lng":-81.5157535
  },
  {
    "location":"Sonic",
    "lat":40.7741406,
    "lng":-74.0379183
  },
  {
    "location":"Billings, MT",
    "lat":45.7832856,
    "lng":-108.5006904
  },
  {
    "location":"ASHDOD ISRAEL",
    "lat":31.804381,
    "lng":34.655314
  },
  {
    "location":"Tower Hamlets, East London",
    "lat":51.52026069999999,
    "lng":-0.0293396
  },
  {
    "location":"Delaware #delhs #netde",
    "lat":38.9108325,
    "lng":-75.52766989999999
  },
  {
    "location":"Mundelein, IL",
    "lat":42.263079,
    "lng":-88.00396529999999
  },
  {
    "location":"INSIDE YOUR MIND Washington DC",
    "lat":38.9071923,
    "lng":-77.0368707
  },
  {
    "location":"Mother Land & Brotherly Love",
    "lat":12.9847766,
    "lng":77.67476940000002
  },
  {
    "location":"Brooklyn NY",
    "lat":40.6781784,
    "lng":-73.9441579
  },
  {
    "location":"Purple Twilight",
    "lat":39.2562597,
    "lng":-76.8452698
  },
  {
    "location":"Stgo centro",
    "lat":20.5920203,
    "lng":-100.3919033
  },
  {
    "location":"new york /st.lucia",
    "lat":43.0340777,
    "lng":-77.10041
  },
  {
    "location":"Bradenton, Florida",
    "lat":27.4989278,
    "lng":-82.5748194
  },
  {
    "location":"Long Beach , New York",
    "lat":40.5884373,
    "lng":-73.65790799999999
  },
  {
    "location":"Someones",
    "lat":23.8385984,
    "lng":90.50415160000001
  },
  {
    "location":"Clearwater",
    "lat":27.9658533,
    "lng":-82.8001026
  },
  {
    "location":"Opolskie, Polska",
    "lat":50.8003761,
    "lng":17.937989
  },
  {
    "location":"Blackshear,Georgia/ Floridian",
    "lat":32.052706,
    "lng":-81.058224
  },
  {
    "location":"WI.",
    "lat":43.7844397,
    "lng":-88.7878678
  },
  {
    "location":"WORLDWIDE!!! #BlackLivesMatter",
    "lat":52.57083129999999,
    "lng":-0.3006158
  },
  {
    "location":"Austin in Awesome Texas!!!",
    "lat":30.4919176,
    "lng":-97.72404949999999
  },
  {
    "location":"Willoughby, Ohio",
    "lat":41.6397696,
    "lng":-81.4065011
  },
  {
    "location":"The Land of Enchantment",
    "lat":34.5199402,
    "lng":-105.8700901
  },
  {
    "location":"Grand Island, NY",
    "lat":43.0216283,
    "lng":-78.9657302
  },
  {
    "location":"Stanford/DC",
    "lat":38.9790241,
    "lng":-77.0859929
  },
  {
    "location":"A place with a beach",
    "lat":52.2106528,
    "lng":5.303065500000001
  },
  {
    "location":"Heavener, OK",
    "lat":34.8955218,
    "lng":-94.6030084
  },
  {
    "location":"Anywhere, USA",
    "lat":43.2269882,
    "lng":-70.9073724
  },
  {
    "location":"Pittsburgh, PA",
    "lat":40.44062479999999,
    "lng":-79.9958864
  },
  {
    "location":"Cajun Country, Louisiana",
    "lat":29.6299196,
    "lng":-90.50926899999999
  },
  {
    "location":"North West",
    "lat":-26.6638599,
    "lng":25.2837585
  },
  {
    "location":"Dunnellon, FL",
    "lat":29.0491426,
    "lng":-82.46093309999999
  },
  {
    "location":"Poconos, USA",
    "lat":41.248611,
    "lng":-75.248611
  },
  {
    "location":"David Bowie Beach",
    "lat":14.4116326,
    "lng":120.9047005
  },
  {
    "location":"Montgomery,Texas,USA",
    "lat":30.3882613,
    "lng":-95.69633549999999
  },
  {
    "location":"New Jersey, US",
    "lat":40.0583238,
    "lng":-74.4056612
  },
  {
    "location":"Semmes, Alabama",
    "lat":30.7782432,
    "lng":-88.2591726
  },
  {
    "location":"AMERICA  HOME OF THE BRAVE",
    "lat":39.2773466,
    "lng":-84.28778609999999
  },
  {
    "location":"Wallasey",
    "lat":53.426521,
    "lng":-3.066215
  },
  {
    "location":"Montr al, Canada",
    "lat":45.5016889,
    "lng":-73.567256
  },
  {
    "location":"Greenville, SC",
    "lat":34.85261759999999,
    "lng":-82.3940104
  },
  {
    "location":"Northern Wisconsin",
    "lat":44.2387739,
    "lng":-88.4645709
  },
  {
    "location":"Mesa, AZ",
    "lat":33.4151843,
    "lng":-111.8314724
  },
  {
    "location":"Tampa Bay, Florida",
    "lat":27.763383,
    "lng":-82.5436722
  },
  {
    "location":"S o Paulo, Brazil",
    "lat":-23.5431786,
    "lng":-46.6291845
  },
  {
    "location":"Worldwide",
    "lat":52.57083129999999,
    "lng":-0.3006158
  },
  {
    "location":"Cleveland Heights, Ohio",
    "lat":41.5200518,
    "lng":-81.556235
  },
  {
    "location":"iowa",
    "lat":41.8780025,
    "lng":-93.097702
  },
  {
    "location":"Jersey Baby!",
    "lat":38.9703262,
    "lng":-90.4323378
  },
  {
    "location":"jupiter",
    "lat":26.9342246,
    "lng":-80.0942087
  },
  {
    "location":"Winter Garden, FL",
    "lat":28.5652787,
    "lng":-81.58618469999999
  },
  {
    "location":"Gun Barrel City, TX",
    "lat":32.3345888,
    "lng":-96.1513627
  },
  {
    "location":"Wigan/Liverpool",
    "lat":53.5261402,
    "lng":-2.5894338
  },
  {
    "location":"Maria da Gra a, Rio de Janeiro",
    "lat":-22.8853427,
    "lng":-43.265395
  },
  {
    "location":"South Carolina",
    "lat":33.836081,
    "lng":-81.1637245
  },
  {
    "location":"Boise, ID",
    "lat":43.6187102,
    "lng":-116.2146068
  },
  {
    "location":"GA &NY",
    "lat":32.1656221,
    "lng":-82.9000751
  },
  {
    "location":"Slovenija, Ljubljana",
    "lat":46.0569465,
    "lng":14.5057515
  },
  {
    "location":"Rancho Cucamonga CA",
    "lat":34.10639889999999,
    "lng":-117.5931084
  },
  {
    "location":"London, England",
    "lat":51.5073509,
    "lng":-0.1277583
  },
  {
    "location":"HEAVEN",
    "lat":26.5681433,
    "lng":53.9344266
  },
  {
    "location":"New Smyrna Beach, FL",
    "lat":29.0258191,
    "lng":-80.9269984
  },
  {
    "location":"Think Tank",
    "lat":53.2279542,
    "lng":-0.5550584
  },
  {
    "location":"ILLINOIS",
    "lat":40.6331249,
    "lng":-89.3985283
  },
  {
    "location":"LIMA - PERU",
    "lat":-12.046374,
    "lng":-77.0427934
  },
  {
    "location":"Hyrule",
    "lat":30.6991277,
    "lng":-91.1503309
  },
  {
    "location":"East Jerusalem/ D.C.",
    "lat":31.768319,
    "lng":35.21371
  },
  {
    "location":"ver.0.9.3",
    "lat":19.1496936,
    "lng":-96.1236409
  },
  {
    "location":"Kent",
    "lat":51.2787075,
    "lng":0.5217254000000001
  },
  {
    "location":"GOD BLESS AMERICA",
    "lat":-33.0491343,
    "lng":-71.3440773
  },
  {
    "location":"Perth, Scotland",
    "lat":56.394994,
    "lng":-3.430838
  },
  {
    "location":"Columbia, South Carolina",
    "lat":34.0007104,
    "lng":-81.0348144
  },
  {
    "location":"durham | burly",
    "lat":35.9940329,
    "lng":-78.898619
  },
  {
    "location":"America",
    "lat":37.09024,
    "lng":-95.712891
  },
  {
    "location":"Wales, United Kingdom",
    "lat":52.1306607,
    "lng":-3.7837117
  },
  {
    "location":"Bogot , Colombia",
    "lat":4.710988599999999,
    "lng":-74.072092
  },
  {
    "location":"Pleasantville, NY",
    "lat":41.1333371,
    "lng":-73.7924152
  },
  {
    "location":"Hazard, KY",
    "lat":37.24954,
    "lng":-83.1932284
  },
  {
    "location":"Phillips Ranch, California",
    "lat":34.0362084,
    "lng":-117.7842637
  },
  {
    "location":"Olympia, WA",
    "lat":47.0378741,
    "lng":-122.9006951
  },
  {
    "location":"Phoenixville,  PA",
    "lat":40.1303822,
    "lng":-75.51491279999999
  },
  {
    "location":"Durham, NC",
    "lat":35.9940329,
    "lng":-78.898619
  },
  {
    "location":"Modesto, CA",
    "lat":37.63909719999999,
    "lng":-120.9968782
  },
  {
    "location":"Everywhere, USA",
    "lat":37.6658757,
    "lng":-91.8479332
  },
  {
    "location":"Pacific Northwest",
    "lat":46.5180824,
    "lng":-123.8264512
  },
  {
    "location":"Vancouver",
    "lat":45.6387281,
    "lng":-122.6614861
  },
  {
    "location":"Union Hall,Va.",
    "lat":37.0388957,
    "lng":-79.6899411
  },
  {
    "location":"Black Dolphin",
    "lat":51.3274793,
    "lng":-0.7547919
  },
  {
    "location":"Tampa florida",
    "lat":27.950575,
    "lng":-82.4571776
  },
  {
    "location":"Falls Church/McLean, VA",
    "lat":38.8986836,
    "lng":-77.19044699999999
  },
  {
    "location":"Everywhere",
    "lat":37.6658757,
    "lng":-91.8479332
  },
  {
    "location":"Gold Hill, Colorado",
    "lat":40.0633019,
    "lng":-105.4096183
  },
  {
    "location":"Detroit, MI",
    "lat":42.331427,
    "lng":-83.0457538
  },
  {
    "location":"Richardson, TX",
    "lat":32.9483335,
    "lng":-96.7298519
  },
  {
    "location":"alexandria,va",
    "lat":38.8048355,
    "lng":-77.0469214
  },
  {
    "location":"Buford, GA",
    "lat":34.1206564,
    "lng":-84.0043513
  },
  {
    "location":"Haymarket, VA",
    "lat":38.8120591,
    "lng":-77.6363806
  },
  {
    "location":"Duffield, Va",
    "lat":36.7189846,
    "lng":-82.79599499999999
  },
  {
    "location":"Ensenada, BC.",
    "lat":31.8667427,
    "lng":-116.5963713
  },
  {
    "location":"Seattle, Wa",
    "lat":47.6062095,
    "lng":-122.3320708
  },
  {
    "location":"Wolcott CT",
    "lat":41.6023196,
    "lng":-72.9867718
  },
  {
    "location":"1/2 in Ohio, 1/2 in Arizona.",
    "lat":37.9965507,
    "lng":-87.4137702
  },
  {
    "location":"THE LAND",
    "lat":31.6710578,
    "lng":-97.18290139999999
  },
  {
    "location":"The Great State of Texas",
    "lat":32.6971081,
    "lng":-97.0440486
  },
  {
    "location":"LD 17",
    "lat":32.93498599999999,
    "lng":35.3142885
  },
  {
    "location":"Now",
    "lat":48.1402359,
    "lng":-123.4109811
  },
  {
    "location":"SOUTH TEXAS",
    "lat":31.9685988,
    "lng":-99.9018131
  },
  {
    "location":"Brooklyn, New York",
    "lat":40.6781784,
    "lng":-73.9441579
  },
  {
    "location":"Kansas City, America",
    "lat":39.0997265,
    "lng":-94.5785667
  },
  {
    "location":"West Virginia",
    "lat":38.5976262,
    "lng":-80.4549026
  },
  {
    "location":"Main Street, USA",
    "lat":42.8760887,
    "lng":-78.8773898
  },
  {
    "location":"Rocklin, CA",
    "lat":38.7907339,
    "lng":-121.2357828
  },
  {
    "location":"Mountains",
    "lat":48.8863418,
    "lng":26.8549322
  },
  {
    "location":"fresno ca",
    "lat":36.7468422,
    "lng":-119.7725868
  },
  {
    "location":"ontario",
    "lat":34.0633443,
    "lng":-117.6508876
  },
  {
    "location":"San Jose, CA",
    "lat":37.3382082,
    "lng":-121.8863286
  },
  {
    "location":"Galway, Ireland",
    "lat":53.270668,
    "lng":-9.0567905
  },
  {
    "location":"Shockoe Bottom, RVA",
    "lat":37.5275208,
    "lng":-77.4228625
  },
  {
    "location":"in tall woods",
    "lat":18.7350886,
    "lng":72.94218099999999
  },
  {
    "location":"Summerlin South, NV",
    "lat":36.1349048,
    "lng":-115.3280016
  },
  {
    "location":"SoCal, Hawaii, Dallas",
    "lat":32.7766642,
    "lng":-96.79698789999999
  },
  {
    "location":"Burnaby, BC",
    "lat":49.2488091,
    "lng":-122.9805104
  },
  {
    "location":"Henrietta, NY",
    "lat":43.0592452,
    "lng":-77.6128039
  },
  {
    "location":"Cabot, AR",
    "lat":34.974532,
    "lng":-92.0165336
  },
  {
    "location":"Chicago / New Mexico",
    "lat":31.8391919,
    "lng":-107.6453656
  },
  {
    "location":"Ontario California",
    "lat":34.0633443,
    "lng":-117.6508876
  },
  {
    "location":"Dayton, OH",
    "lat":39.7589478,
    "lng":-84.1916069
  },
  {
    "location":"Dimension X",
    "lat":33.6689924,
    "lng":-117.6762727
  },
  {
    "location":"Great Commonwealth of Virginia",
    "lat":36.7121593,
    "lng":-76.2256237
  },
  {
    "location":"Plantation, FL",
    "lat":26.1275862,
    "lng":-80.23310359999999
  },
  {
    "location":"syracuse - fairport - the moon",
    "lat":43.0481221,
    "lng":-76.14742439999999
  },
  {
    "location":"Eastern Washington",
    "lat":35.0444412,
    "lng":-97.47685729999999
  },
  {
    "location":"39.9989,-83.1419",
    "lat":39.998993,
    "lng":-83.14182699999999
  },
  {
    "location":"Colombia",
    "lat":4.570868,
    "lng":-74.297333
  },
  {
    "location":"On the road on my way to SW FL",
    "lat":27.6648274,
    "lng":-81.5157535
  },
  {
    "location":"Edm",
    "lat":46.7016684,
    "lng":-1.3824081
  },
  {
    "location":"South Bend",
    "lat":41.6763545,
    "lng":-86.25198979999999
  },
  {
    "location":"SouthEastern USA",
    "lat":41.801105,
    "lng":-86.50051239999999
  },
  {
    "location":"Rocky Mountain West",
    "lat":35.8053663,
    "lng":-94.7674486
  },
  {
    "location":"Laconia, NH USA",
    "lat":43.5278546,
    "lng":-71.4703509
  },
  {
    "location":"Murray, KY",
    "lat":36.6103334,
    "lng":-88.31476099999999
  },
  {
    "location":"Warrenville, IL",
    "lat":41.81780699999999,
    "lng":-88.17340209999999
  },
  {
    "location":"Michiana",
    "lat":41.7642071,
    "lng":-86.8133615
  },
  {
    "location":"South-central PA",
    "lat":40.2510096,
    "lng":-80.1846357
  },
  {
    "location":"MiddleofNowhere, KY",
    "lat":37.8393332,
    "lng":-84.2700179
  },
  {
    "location":"Tallahassee, Florida",
    "lat":30.4382559,
    "lng":-84.28073289999999
  },
  {
    "location":"Paradise Valley, Arizona",
    "lat":33.5311541,
    "lng":-111.9426452
  },
  {
    "location":"Dixie",
    "lat":38.2507682,
    "lng":-81.1927773
  },
  {
    "location":"Grants Pass Oregon",
    "lat":42.4390069,
    "lng":-123.3283925
  },
  {
    "location":"bostonstrong",
    "lat":42.3607878,
    "lng":-71.06824859999999
  },
  {
    "location":"The Fifth Dimension",
    "lat":24.8186022,
    "lng":67.0236692
  },
  {
    "location":"Ballsack, Kentucky",
    "lat":37.41131439999999,
    "lng":-87.6365896
  },
  {
    "location":"Von Ormy, TX",
    "lat":29.28898869999999,
    "lng":-98.64478489999999
  },
  {
    "location":"California, USA",
    "lat":36.778261,
    "lng":-119.4179324
  },
  {
    "location":"Los Angeles",
    "lat":34.0522342,
    "lng":-118.2436849
  },
  {
    "location":"Virginia Beach,VA",
    "lat":36.8529263,
    "lng":-75.97798499999999
  },
  {
    "location":"the beach",
    "lat":46.9124231,
    "lng":3.0967216
  },
  {
    "location":"VIRGINIA",
    "lat":37.4315734,
    "lng":-78.6568942
  },
  {
    "location":"'MERICA!!!",
    "lat":43.3980556,
    "lng":19.775
  },
  {
    "location":"Iowa, USA",
    "lat":41.8780025,
    "lng":-93.097702
  },
  {
    "location":"Price, UT",
    "lat":39.5994095,
    "lng":-110.8107148
  },
  {
    "location":"Washington DC Metro Area",
    "lat":38.967392,
    "lng":-77.0314337
  },
  {
    "location":"london uk, boston ma",
    "lat":51.5073509,
    "lng":-0.1277583
  },
  {
    "location":"Some island near Brooklyn",
    "lat":40.6781784,
    "lng":-73.9441579
  },
  {
    "location":"The Silver State",
    "lat":38.8026097,
    "lng":-116.419389
  },
  {
    "location":"Washington, USA",
    "lat":38.9071923,
    "lng":-77.0368707
  },
  {
    "location":"Columbus, OH",
    "lat":39.9611755,
    "lng":-82.99879419999999
  },
  {
    "location":"Iowa City, IA",
    "lat":41.6611277,
    "lng":-91.5301683
  },
  {
    "location":"Andes, NY",
    "lat":42.188935,
    "lng":-74.7858037
  },
  {
    "location":"Gallitzin, PA",
    "lat":40.482293,
    "lng":-78.5516827
  },
  {
    "location":"setauket ny",
    "lat":40.9293759,
    "lng":-73.1025502
  },
  {
    "location":"Lakeland, Florida",
    "lat":28.0394654,
    "lng":-81.9498042
  },
  {
    "location":"USA",
    "lat":37.09024,
    "lng":-95.712891
  },
  {
    "location":"los angeles",
    "lat":34.0522342,
    "lng":-118.2436849
  },
  {
    "location":"the old pueblo",
    "lat":38.6310502,
    "lng":-104.6803369
  },
  {
    "location":"Brooklyn, NY",
    "lat":40.6781784,
    "lng":-73.9441579
  },
  {
    "location":"Nashua, NH",
    "lat":42.7653662,
    "lng":-71.46756599999999
  },
  {
    "location":"Reading, Pa 19608",
    "lat":40.319402,
    "lng":-76.02758589999999
  },
  {
    "location":"timbaktu",
    "lat":16.7665887,
    "lng":-3.0025615
  },
  {
    "location":"Our United States",
    "lat":41.8976965,
    "lng":-75.6040668
  },
  {
    "location":"40.694302,-73.955693",
    "lat":40.694391,
    "lng":-73.955719
  },
  {
    "location":"THE UNITED STATES OF AMERICA",
    "lat":37.09024,
    "lng":-95.712891
  },
  {
    "location":"at a concert",
    "lat":47.3471989,
    "lng":13.4315714
  },
  {
    "location":"Vancouver, Canada",
    "lat":49.2827291,
    "lng":-123.1207375
  },
  {
    "location":"south africa",
    "lat":-30.559482,
    "lng":22.937506
  },
  {
    "location":"Trenton NJ & Irvine CA",
    "lat":40.2170534,
    "lng":-74.7429384
  },
  {
    "location":"Warner Robins, Ga.",
    "lat":32.6130007,
    "lng":-83.624201
  },
  {
    "location":"Frankfort, KY",
    "lat":38.2009055,
    "lng":-84.87328350000001
  },
  {
    "location":"Romney, WV",
    "lat":39.3420431,
    "lng":-78.75668390000001
  },
  {
    "location":"Feel the Bern!",
    "lat":46.9479739,
    "lng":7.4474468
  },
  {
    "location":"galesburg/edwardsville",
    "lat":38.8114364,
    "lng":-89.95315699999999
  },
  {
    "location":"Santa Cruz, Ca",
    "lat":36.9741171,
    "lng":-122.0307963
  },
  {
    "location":"Nevada USA",
    "lat":38.8026097,
    "lng":-116.419389
  },
  {
    "location":"Big Spring, TX",
    "lat":32.2503979,
    "lng":-101.4787355
  },
  {
    "location":"Wheeling,WV.",
    "lat":40.0639616,
    "lng":-80.7209149
  },
  {
    "location":"Amityville,NY",
    "lat":40.6789893,
    "lng":-73.4170673
  },
  {
    "location":"Main Street, USA",
    "lat":42.8760887,
    "lng":-78.8773898
  },
  {
    "location":"LOUISIANA",
    "lat":30.9842977,
    "lng":-91.96233269999999
  },
  {
    "location":"Idaho",
    "lat":44.0682019,
    "lng":-114.7420408
  },
  {
    "location":"Tahlequah",
    "lat":35.91537,
    "lng":-94.969956
  },
  {
    "location":"Saint Paul, Minnesota",
    "lat":44.9537029,
    "lng":-93.0899578
  },
  {
    "location":"Newton, MA",
    "lat":42.3370413,
    "lng":-71.20922139999999
  },
  {
    "location":"San Francisco",
    "lat":37.7749295,
    "lng":-122.4194155
  },
  {
    "location":"Republic of the Philippines",
    "lat":12.879721,
    "lng":121.774017
  },
  {
    "location":"Sherman, TX",
    "lat":33.6356618,
    "lng":-96.6088805
  },
  {
    "location":"Springfield",
    "lat":42.1014831,
    "lng":-72.589811
  },
  {
    "location":"New Orleans, La, USA, Earth",
    "lat":29.95106579999999,
    "lng":-90.0715323
  },
  {
    "location":"Seaside, CA",
    "lat":36.6149217,
    "lng":-121.822098
  },
  {
    "location":"layton utah",
    "lat":41.0602216,
    "lng":-111.9710529
  },
  {
    "location":"Farmington, IL",
    "lat":40.6980932,
    "lng":-90.0059483
  },
  {
    "location":"Alameda, CA",
    "lat":37.7652065,
    "lng":-122.2416355
  },
  {
    "location":"USA northwest",
    "lat":30.38548029999999,
    "lng":-81.8005724
  },
  {
    "location":"South Tyneside",
    "lat":54.9636693,
    "lng":-1.4418634
  },
  {
    "location":"Northern California, USA",
    "lat":38.8375215,
    "lng":-120.8958242
  },
  {
    "location":"Western New York",
    "lat":43.3447295,
    "lng":-75.3878525
  },
  {
    "location":"Concord NH 03301",
    "lat":43.2086343,
    "lng":-71.5486562
  },
  {
    "location":"Hazleton, Pa",
    "lat":40.9584181,
    "lng":-75.97464719999999
  },
  {
    "location":"Tampa FL",
    "lat":27.950575,
    "lng":-82.4571776
  },
  {
    "location":"worldwide",
    "lat":52.57083129999999,
    "lng":-0.3006158
  },
  {
    "location":"Somerton, Philadelphia",
    "lat":40.1245213,
    "lng":-75.0085399
  },
  {
    "location":"De Soto, Wisconsin",
    "lat":43.4230306,
    "lng":-91.1990204
  },
  {
    "location":"Alings s, Sweden",
    "lat":57.9300205,
    "lng":12.5362113
  },
  {
    "location":"Suisse",
    "lat":46.818188,
    "lng":8.227511999999999
  },
  {
    "location":"Henderson, Nevada USA",
    "lat":36.0395247,
    "lng":-114.9817213
  },
  {
    "location":"Hollyville, USA",
    "lat":38.67234,
    "lng":-75.23436699999999
  },
  {
    "location":"Holland, MI",
    "lat":42.7875235,
    "lng":-86.1089301
  },
  {
    "location":"uh, let's say FL",
    "lat":27.6648274,
    "lng":-81.5157535
  },
  {
    "location":"Normal, IL",
    "lat":40.5142026,
    "lng":-88.9906312
  },
  {
    "location":"SoFLA",
    "lat":35.6823507,
    "lng":51.4620097
  },
  {
    "location":"Louisville, KY",
    "lat":38.2526647,
    "lng":-85.7584557
  },
  {
    "location":"London, Milan, Paris",
    "lat":48.856614,
    "lng":2.3522219
  },
  {
    "location":"colorado rural",
    "lat":38.9948515,
    "lng":-95.2571237
  },
  {
    "location":"Madison Wisconsin",
    "lat":43.0730517,
    "lng":-89.4012302
  },
  {
    "location":"45.52244,-73.551066",
    "lat":45.5226,
    "lng":-73.55122089999999
  },
  {
    "location":"San Diego, CA USA",
    "lat":32.715738,
    "lng":-117.1610838
  },
  {
    "location":"Florida Beach",
    "lat":3.4000221,
    "lng":-76.387969
  },
  {
    "location":"Canada",
    "lat":56.130366,
    "lng":-106.346771
  },
  {
    "location":"Panama City Fl",
    "lat":30.1588129,
    "lng":-85.6602058
  },
  {
    "location":"montreal",
    "lat":45.5016889,
    "lng":-73.567256
  },
  {
    "location":"Pacific Beach California",
    "lat":32.8024577,
    "lng":-117.2355851
  },
  {
    "location":"Sherwood, OR",
    "lat":45.3565074,
    "lng":-122.840098
  },
  {
    "location":"Port Huron, MI",
    "lat":42.9708634,
    "lng":-82.42491419999999
  },
  {
    "location":"Vancouver BC, Canada",
    "lat":49.2827291,
    "lng":-123.1207375
  },
  {
    "location":"Northern Michigan",
    "lat":44.1966156,
    "lng":-84.07991020000001
  },
  {
    "location":"Arkansas",
    "lat":35.20105,
    "lng":-91.8318334
  },
  {
    "location":"Warrensburg, MO",
    "lat":38.7627893,
    "lng":-93.73604979999999
  },
  {
    "location":"Providence RI",
    "lat":41.8239891,
    "lng":-71.4128343
  },
  {
    "location":"642 miles NE of Key West",
    "lat":42.1718943,
    "lng":-98.18839489999999
  },
  {
    "location":"Houston TX",
    "lat":29.7604267,
    "lng":-95.3698028
  },
  {
    "location":"Fort Oglethorpe, GA",
    "lat":34.9489645,
    "lng":-85.2569
  },
  {
    "location":"Michigan",
    "lat":44.3148443,
    "lng":-85.60236429999999
  },
  {
    "location":"The Woogie | Dallas",
    "lat":32.7766642,
    "lng":-96.79698789999999
  },
  {
    "location":"The American West",
    "lat":40.7864948,
    "lng":-84.10883849999999
  },
  {
    "location":"Queensland, Australia",
    "lat":-20.9175738,
    "lng":142.7027956
  },
  {
    "location":"Concord, NH",
    "lat":43.2081366,
    "lng":-71.5375718
  },
  {
    "location":"Brooklyn",
    "lat":40.6781784,
    "lng":-73.9441579
  },
  {
    "location":"Buffalo, NY",
    "lat":42.88644679999999,
    "lng":-78.8783689
  },
  {
    "location":"Nashville, Tennessee",
    "lat":36.1626638,
    "lng":-86.7816016
  },
  {
    "location":"Donetsk, Novorossiya",
    "lat":48.015883,
    "lng":37.80285
  },
  {
    "location":"Carrollton, Georgia",
    "lat":33.5801103,
    "lng":-85.0766113
  },
  {
    "location":"N C, USA",
    "lat":35.7595731,
    "lng":-79.01929969999999
  },
  {
    "location":"Jersey Shore to NYC",
    "lat":40.7127837,
    "lng":-74.0059413
  },
  {
    "location":"New York",
    "lat":40.7127837,
    "lng":-74.0059413
  },
  {
    "location":"Victor, ID",
    "lat":43.6026976,
    "lng":-111.1113318
  },
  {
    "location":"Shadows of America",
    "lat":32.5635989,
    "lng":-93.236847
  },
  {
    "location":"hiding",
    "lat":40.471179,
    "lng":-122.4811699
  },
  {
    "location":"MS Gulf Coast",
    "lat":30.3907536,
    "lng":-88.9975338
  },
  {
    "location":"Kingstree, SC",
    "lat":33.6676643,
    "lng":-79.83062640000001
  },
  {
    "location":"Airdrie, Scotland",
    "lat":55.866267,
    "lng":-3.962566
  },
  {
    "location":"England",
    "lat":52.3555177,
    "lng":-1.1743197
  },
  {
    "location":"Santiago",
    "lat":42.8782132,
    "lng":-8.5448445
  },
  {
    "location":"92078",
    "lat":33.1158665,
    "lng":-117.185294
  },
  {
    "location":"Morro Bay, CA",
    "lat":35.3659445,
    "lng":-120.8499924
  },
  {
    "location":"N Chuck",
    "lat":35.3612761,
    "lng":-77.0100882
  },
  {
    "location":"Toronto, Ontario",
    "lat":43.653226,
    "lng":-79.3831843
  },
  {
    "location":"Paris,Texas",
    "lat":33.6609389,
    "lng":-95.55551299999999
  },
  {
    "location":"Tarpon Springs Fl",
    "lat":28.1461248,
    "lng":-82.7567679
  },
  {
    "location":"Dearborn Heights",
    "lat":42.3369816,
    "lng":-83.27326269999999
  },
  {
    "location":"Scottsdale, AZ",
    "lat":33.4941704,
    "lng":-111.9260519
  },
  {
    "location":"Wallingford, CT",
    "lat":41.4570108,
    "lng":-72.8230736
  },
  {
    "location":"A Sadly Blue State",
    "lat":44.7173989,
    "lng":-70.3947209
  },
  {
    "location":"Cornelius, NC",
    "lat":35.4868032,
    "lng":-80.86007359999999
  },
  {
    "location":"Rockport Tx",
    "lat":28.0205733,
    "lng":-97.0544341
  },
  {
    "location":"Leesburg, VA",
    "lat":39.1156615,
    "lng":-77.56360149999999
  },
  {
    "location":"Bronx",
    "lat":40.8370495,
    "lng":-73.86542949999999
  },
  {
    "location":"Williston, ND",
    "lat":48.1469683,
    "lng":-103.6179745
  },
  {
    "location":"Macon Ga",
    "lat":32.8406946,
    "lng":-83.6324022
  },
  {
    "location":"Bras lia, Brazil",
    "lat":-15.7942287,
    "lng":-47.8821658
  },
  {
    "location":"South Carolina, USA",
    "lat":33.836081,
    "lng":-81.1637245
  },
  {
    "location":"Jupiter, Florida",
    "lat":26.9342246,
    "lng":-80.0942087
  },
  {
    "location":"Los Angeles, CA",
    "lat":34.0522342,
    "lng":-118.2436849
  },
  {
    "location":"Chapultepeq~",
    "lat":19.9393103,
    "lng":-97.97534189999999
  },
  {
    "location":"Las Vegas ;)",
    "lat":36.1699412,
    "lng":-115.1398296
  },
  {
    "location":"Groningen",
    "lat":53.2193835,
    "lng":6.566501799999999
  },
  {
    "location":"kent, WA",
    "lat":47.3809335,
    "lng":-122.2348431
  },
  {
    "location":"Palm Springs, California",
    "lat":33.8302961,
    "lng":-116.5452921
  },
  {
    "location":"Lehigh Valley, PA",
    "lat":40.6514123,
    "lng":-75.4075532
  },
  {
    "location":"Reality",
    "lat":19.173074,
    "lng":73.222953
  },
  {
    "location":"Bay Area, CA.",
    "lat":37.8271784,
    "lng":-122.2913078
  },
  {
    "location":"Palm Beach Fl",
    "lat":26.7056206,
    "lng":-80.0364297
  },
  {
    "location":"Danmark",
    "lat":56.26392,
    "lng":9.501785
  },
  {
    "location":"Keene, NH",
    "lat":42.933692,
    "lng":-72.2781409
  },
  {
    "location":"New Jersey / NYC",
    "lat":40.7127837,
    "lng":-74.0059413
  },
  {
    "location":"Bensonhurst, Brooklyn",
    "lat":40.6112691,
    "lng":-73.9976946
  },
  {
    "location":"Tysons Corner, VA",
    "lat":38.9187222,
    "lng":-77.2310925
  },
  {
    "location":"Oklahoma City, OK",
    "lat":35.4675602,
    "lng":-97.5164276
  },
  {
    "location":"Birmingham, England",
    "lat":52.48624299999999,
    "lng":-1.890401
  },
  {
    "location":"Lansing, MI",
    "lat":42.732535,
    "lng":-84.5555347
  },
  {
    "location":"Baltimore, Maryland",
    "lat":39.2903848,
    "lng":-76.6121893
  },
  {
    "location":"Arkanss",
    "lat":35.20105,
    "lng":-91.8318334
  },
  {
    "location":"41.806672,-71.413501",
    "lat":41.806672,
    "lng":-71.413597
  },
  {
    "location":"Reno, Nevada",
    "lat":39.5296329,
    "lng":-119.8138027
  },
  {
    "location":"Marana , Az",
    "lat":32.436381,
    "lng":-111.2224422
  },
  {
    "location":"So. Cal.",
    "lat":36.778261,
    "lng":-119.4179324
  },
  {
    "location":"Peru",
    "lat":-9.189967,
    "lng":-75.015152
  },
  {
    "location":"Bergen County, NJ",
    "lat":40.9262762,
    "lng":-74.07701
  },
  {
    "location":"08107",
    "lat":39.9057907,
    "lng":-75.0815557
  },
  {
    "location":"GABORONE,BOTSWANA",
    "lat":-24.6282079,
    "lng":25.9231471
  },
  {
    "location":"Chicago / Planet Boom!",
    "lat":41.8781136,
    "lng":-87.6297982
  },
  {
    "location":"The Ocean, Earth",
    "lat":33.20216,
    "lng":-117.272499
  },
  {
    "location":"Lekki",
    "lat":6.4589849,
    "lng":3.6015207
  },
  {
    "location":"The Open Road",
    "lat":40.8531676,
    "lng":-79.2477234
  },
  {
    "location":"Treasure Coast, FL",
    "lat":27.248373,
    "lng":-80.2779102
  },
  {
    "location":"Margaritaville/Tampa",
    "lat":27.950575,
    "lng":-82.4571776
  },
  {
    "location":"the left",
    "lat":36.5352606,
    "lng":10.839054
  },
  {
    "location":"Sedona AZ",
    "lat":34.8697395,
    "lng":-111.7609896
  },
  {
    "location":"Northern VA",
    "lat":37.2232316,
    "lng":-81.4498717
  },
  {
    "location":"neutral zone",
    "lat":34.0722311,
    "lng":-118.4442651
  },
  {
    "location":"Illinois For Trump! 2016",
    "lat":40.6331249,
    "lng":-89.3985283
  },
  {
    "location":"Bucks County PA- Near Philly",
    "lat":39.9525839,
    "lng":-75.1652215
  },
  {
    "location":"Cody, Alli & Jordan followed",
    "lat":38.6056909,
    "lng":-121.3799539
  },
  {
    "location":"Northeast Ohio",
    "lat":40.4172871,
    "lng":-82.90712300000001
  },
  {
    "location":"Alberta",
    "lat":53.9332706,
    "lng":-116.5765035
  },
  {
    "location":"Beautiful Eastern Tennessee",
    "lat":35.5174913,
    "lng":-86.5804473
  },
  {
    "location":"Jakin, Ga",
    "lat":31.0910162,
    "lng":-84.98214999999999
  },
  {
    "location":"San Francisco, CA",
    "lat":37.7749295,
    "lng":-122.4194155
  },
  {
    "location":"San Diego, Ca",
    "lat":32.715738,
    "lng":-117.1610838
  },
  {
    "location":"Detroit",
    "lat":42.331427,
    "lng":-83.0457538
  },
  {
    "location":"Capital of the World (DC)",
    "lat":38.91400400000001,
    "lng":-77.045152
  },
  {
    "location":"Los Angeles, CA",
    "lat":34.0522342,
    "lng":-118.2436849
  },
  {
    "location":"Medford, NJ",
    "lat":39.86618259999999,
    "lng":-74.8390162
  },
  {
    "location":"SHINING CANYON M.F.",
    "lat":34.3272207,
    "lng":-118.514403
  },
  {
    "location":"Moline, IL",
    "lat":41.5067003,
    "lng":-90.51513419999999
  },
  {
    "location":"Hawaii, HI",
    "lat":19.5429151,
    "lng":-155.6658568
  },
  {
    "location":"Sarasota FL (AKA Vern Land",
    "lat":27.3364347,
    "lng":-82.53065269999999
  },
  {
    "location":"Montreal, Canada",
    "lat":45.5016889,
    "lng":-73.567256
  },
  {
    "location":"Texan Fan",
    "lat":37.5329398,
    "lng":-77.46932749999999
  },
  {
    "location":"Ft lauderdale",
    "lat":26.1224386,
    "lng":-80.13731740000001
  },
  {
    "location":"Austin TX Oakland CA",
    "lat":37.8043637,
    "lng":-122.2711137
  },
  {
    "location":"Toronto",
    "lat":43.653226,
    "lng":-79.3831843
  },
  {
    "location":"Cbus",
    "lat":31.4893604,
    "lng":74.32648209999999
  },
  {
    "location":"Next door!",
    "lat":37.7861563,
    "lng":-122.4201283
  },
  {
    "location":"LV-426",
    "lat":-22.738008,
    "lng":-42.9453477
  },
  {
    "location":"Laredo, Texas",
    "lat":27.5305671,
    "lng":-99.48032409999999
  },
  {
    "location":"Warsaw, Poland",
    "lat":52.2296756,
    "lng":21.0122287
  },
  {
    "location":"nyc",
    "lat":40.7127837,
    "lng":-74.0059413
  },
  {
    "location":"Norge",
    "lat":60.47202399999999,
    "lng":8.468945999999999
  },
  {
    "location":"Cedar Rapids, Iowa",
    "lat":41.9778795,
    "lng":-91.6656232
  },
  {
    "location":"Allentown, PA",
    "lat":40.6084305,
    "lng":-75.4901833
  },
  {
    "location":"NorCal & SoCal-Misplaced Texan",
    "lat":38.8375215,
    "lng":-120.8958242
  },
  {
    "location":"Midwest, USA",
    "lat":43.41136040000001,
    "lng":-106.2800242
  },
  {
    "location":"D.C.",
    "lat":38.9071923,
    "lng":-77.0368707
  },
  {
    "location":"Eastern WA state",
    "lat":48.3059708,
    "lng":-122.5920515
  },
  {
    "location":"USA",
    "lat":37.09024,
    "lng":-95.712891
  },
  {
    "location":"Somewhere in Virginia",
    "lat":51.40505,
    "lng":-2.352789
  },
  {
    "location":"Minneapolis Minnesota",
    "lat":44.977753,
    "lng":-93.2650108
  },
  {
    "location":"Rockford (Screw City)",
    "lat":42.2711311,
    "lng":-89.0939952
  },
  {
    "location":"Colorado",
    "lat":39.5500507,
    "lng":-105.7820674
  },
  {
    "location":"Northwest Washington State",
    "lat":45.6650898,
    "lng":-122.6837343
  },
  {
    "location":"Flemington, NJ",
    "lat":40.5123258,
    "lng":-74.85933179999999
  },
  {
    "location":"Michigan, USA",
    "lat":44.3148443,
    "lng":-85.60236429999999
  },
  {
    "location":"Wichita, KS",
    "lat":37.68717609999999,
    "lng":-97.33005299999999
  },
  {
    "location":"Kansas City Metro",
    "lat":39.2516237,
    "lng":-94.58644489999999
  },
  {
    "location":"The Based North",
    "lat":25.5304773,
    "lng":77.21177329999999
  },
  {
    "location":"New York / Connecticut",
    "lat":40.5032284,
    "lng":-74.24970119999999
  },
  {
    "location":"New York, NY",
    "lat":40.7127837,
    "lng":-74.0059413
  },
  {
    "location":"Seattle, WA, USA",
    "lat":47.6062095,
    "lng":-122.3320708
  },
  {
    "location":"The Great Blue State of MN",
    "lat":44.0046863,
    "lng":-94.0657885
  },
  {
    "location":"public",
    "lat":33.3188468,
    "lng":-111.7288275
  },
  {
    "location":"Miami, FL",
    "lat":25.7616798,
    "lng":-80.1917902
  },
  {
    "location":"LINY",
    "lat":35.104674,
    "lng":118.356414
  },
  {
    "location":"6 Pack | Chicago",
    "lat":41.3811931,
    "lng":-88.42512119999999
  },
  {
    "location":"Cheyenne, WY",
    "lat":41.1399814,
    "lng":-104.8202462
  },
  {
    "location":"Land of Enchantment",
    "lat":34.5199402,
    "lng":-105.8700901
  },
  {
    "location":"Best Place In America!",
    "lat":41.6688673,
    "lng":-86.0129407
  },
  {
    "location":"Louisville, KY",
    "lat":38.2526647,
    "lng":-85.7584557
  },
  {
    "location":"Moscow, Russia",
    "lat":55.755826,
    "lng":37.6173
  },
  {
    "location":"Brighton, MA",
    "lat":42.3463503,
    "lng":-71.1626756
  },
  {
    "location":"Port St Lucie, FL",
    "lat":27.2730492,
    "lng":-80.3582261
  },
  {
    "location":"on Internet",
    "lat":45.4264827,
    "lng":-75.6899026
  },
  {
    "location":"Twitter",
    "lat":53.8804589,
    "lng":-2.4294559
  },
  {
    "location":"Fort Worth, TX",
    "lat":32.7554883,
    "lng":-97.3307658
  },
  {
    "location":"Elysium",
    "lat":52.2352648,
    "lng":6.836228200000001
  },
  {
    "location":"Westville",
    "lat":39.8678912,
    "lng":-75.1315649
  },
  {
    "location":"Stroudsburg, PA",
    "lat":40.9867609,
    "lng":-75.1946248
  },
  {
    "location":"Nashville",
    "lat":36.1626638,
    "lng":-86.7816016
  },
  {
    "location":"Montreal",
    "lat":45.5016889,
    "lng":-73.567256
  },
  {
    "location":"Chicago IL",
    "lat":41.8781136,
    "lng":-87.6297982
  },
  {
    "location":"Harrisonburg, VA",
    "lat":38.4495688,
    "lng":-78.8689155
  },
  {
    "location":"Burlington, VT",
    "lat":44.4758825,
    "lng":-73.21207199999999
  },
  {
    "location":"Israel",
    "lat":31.046051,
    "lng":34.851612
  },
  {
    "location":"City of Brotherly Love",
    "lat":39.9525839,
    "lng":-75.1652215
  },
  {
    "location":"Leeds",
    "lat":53.8007554,
    "lng":-1.5490774
  },
  {
    "location":"CAMDEN",
    "lat":51.55170589999999,
    "lng":-0.1588255
  },
  {
    "location":"British Columbia, Canada",
    "lat":53.7266683,
    "lng":-127.6476206
  },
  {
    "location":"Sandersville, Georgia",
    "lat":32.9815431,
    "lng":-82.810138
  },
  {
    "location":"Arlington, Texas",
    "lat":32.735687,
    "lng":-97.10806559999999
  },
  {
    "location":"Joined 2/8/16",
    "lat":15.3820585,
    "lng":97.8936739
  },
  {
    "location":"Kissland",
    "lat":39.0073989,
    "lng":-119.7063576
  },
  {
    "location":"Concord, CA",
    "lat":37.9779776,
    "lng":-122.0310733
  },
  {
    "location":"N-O-L-A",
    "lat":34.0522342,
    "lng":-118.2436849
  },
  {
    "location":"Long Island New York",
    "lat":40.789142,
    "lng":-73.13496099999999
  },
  {
    "location":"Granite City, IL",
    "lat":38.7014389,
    "lng":-90.14871989999999
  },
  {
    "location":"Brandon, Manitoba",
    "lat":49.848471,
    "lng":-99.9500904
  },
  {
    "location":"Roseville, CA.",
    "lat":38.7521235,
    "lng":-121.2880059
  },
  {
    "location":"Now marooned in Marshall, MO",
    "lat":39.1230777,
    "lng":-93.1968704
  },
  {
    "location":"woscom",
    "lat":51.4460027,
    "lng":0.2133448
  },
  {
    "location":"Milwaukee, WI, USA",
    "lat":43.0389025,
    "lng":-87.9064736
  },
  {
    "location":"The Tarheel State",
    "lat":35.7595731,
    "lng":-79.01929969999999
  },
  {
    "location":"Baton Rouge, LA",
    "lat":30.4582829,
    "lng":-91.1403196
  },
  {
    "location":"melancholy hill",
    "lat":40.721953,
    "lng":-75.4696699
  },
  {
    "location":"Muskegon, MI",
    "lat":43.2341813,
    "lng":-86.24839209999999
  },
  {
    "location":"America",
    "lat":37.09024,
    "lng":-95.712891
  },
  {
    "location":"Imperial City, DC",
    "lat":39.0230879,
    "lng":-77.0364173
  },
  {
    "location":"Fairfax County, VA",
    "lat":38.9085472,
    "lng":-77.2405153
  },
  {
    "location":"Asgard",
    "lat":59.6388471,
    "lng":11.3094695
  },
  {
    "location":"Kentucky/Tennessee",
    "lat":35.158379,
    "lng":-87.24877099999999
  },
  {
    "location":"Per",
    "lat":-9.189967,
    "lng":-75.015152
  },
  {
    "location":"West Texas",
    "lat":31.8023831,
    "lng":-97.0916692
  },
  {
    "location":"East Bay Area, California",
    "lat":37.3547205,
    "lng":-121.8694253
  },
  {
    "location":"57th State",
    "lat":33.9063065,
    "lng":-78.65848799999999
  },
  {
    "location":"Albania",
    "lat":41.153332,
    "lng":20.168331
  },
  {
    "location":"Philadelphia. PA",
    "lat":39.9525839,
    "lng":-75.1652215
  },
  {
    "location":"DEEP SOUTH!",
    "lat":33.2720241,
    "lng":-84.6404439
  },
  {
    "location":"Washburn, MT",
    "lat":44.7977159,
    "lng":-110.4343675
  },
  {
    "location":"Platform 9",
    "lat":17.4329866,
    "lng":78.50193929999999
  },
  {
    "location":"London, UK",
    "lat":51.5073509,
    "lng":-0.1277583
  },
  {
    "location":"Florida, USA",
    "lat":27.6648274,
    "lng":-81.5157535
  },
  {
    "location":"Rockville, Maryland, USA",
    "lat":39.0839973,
    "lng":-77.1527578
  },
  {
    "location":"Indonesia",
    "lat":-0.789275,
    "lng":113.921327
  },
  {
    "location":"Camden, ME",
    "lat":44.2097928,
    "lng":-69.0647838
  },
  {
    "location":"In the grid.",
    "lat":20.9498969,
    "lng":72.9466142
  },
  {
    "location":"Virginia USA",
    "lat":37.4315734,
    "lng":-78.6568942
  },
  {
    "location":"Kansas City, Mo.",
    "lat":39.0997265,
    "lng":-94.5785667
  },
  {
    "location":"Ohio, USA",
    "lat":40.4172871,
    "lng":-82.90712300000001
  },
  {
    "location":"Spring, Texas",
    "lat":30.0799405,
    "lng":-95.41716009999999
  },
  {
    "location":"Rochester NY",
    "lat":43.16103,
    "lng":-77.6109219
  },
  {
    "location":"Salt Lake City,",
    "lat":40.7607793,
    "lng":-111.8910474
  },
  {
    "location":"14th State",
    "lat":41.050641,
    "lng":-86.112729
  },
  {
    "location":"Thunder Bay, Ontario",
    "lat":48.3808951,
    "lng":-89.2476823
  },
  {
    "location":"Lone Tree, CO",
    "lat":39.536482,
    "lng":-104.8970678
  },
  {
    "location":"Hialeah, FL",
    "lat":25.8575963,
    "lng":-80.2781057
  },
  {
    "location":"Hermosa Beach, California",
    "lat":33.8622366,
    "lng":-118.3995194
  },
  {
    "location":"Fort Myers Beach, FL",
    "lat":26.4520248,
    "lng":-81.948145
  },
  {
    "location":"New York, USA",
    "lat":40.7127837,
    "lng":-74.0059413
  },
  {
    "location":"Washington State",
    "lat":47.7510741,
    "lng":-120.7401386
  },
  {
    "location":"Newbury Park, CA",
    "lat":34.18410739999999,
    "lng":-118.9100199
  },
  {
    "location":"East Garden City, NY",
    "lat":40.7304187,
    "lng":-73.5980781
  },
  {
    "location":"Beverly Hills, CA",
    "lat":34.0736204,
    "lng":-118.4003563
  },
  {
    "location":"North Dakota",
    "lat":47.5514926,
    "lng":-101.0020119
  },
  {
    "location":"Kinderhook, Illinois, USA",
    "lat":39.7022685,
    "lng":-91.1531957
  },
  {
    "location":"Galveston, TX",
    "lat":29.3013479,
    "lng":-94.7976958
  },
  {
    "location":"Louisiana",
    "lat":30.9842977,
    "lng":-91.96233269999999
  },
  {
    "location":"Arlington, MA",
    "lat":42.4153925,
    "lng":-71.1564729
  },
  {
    "location":"Manchester, NH",
    "lat":42.9956397,
    "lng":-71.4547891
  },
  {
    "location":"Southern California, U.S.",
    "lat":34.9592083,
    "lng":-116.419389
  },
  {
    "location":"milano",
    "lat":45.4654219,
    "lng":9.1859243
  },
  {
    "location":"Lowell, Massachusetts",
    "lat":42.6334247,
    "lng":-71.31617179999999
  },
  {
    "location":"USA NYC",
    "lat":40.7127837,
    "lng":-74.0059413
  },
  {
    "location":"Paris, TX, Fayetteville, NC",
    "lat":35.0526641,
    "lng":-78.87835849999999
  },
  {
    "location":"altoona ,Pa",
    "lat":40.5186809,
    "lng":-78.3947359
  },
  {
    "location":"GOD's Country - USA",
    "lat":41.5519547,
    "lng":-94.097168
  },
  {
    "location":"St. Louis, Missouri, USA",
    "lat":38.6270025,
    "lng":-90.19940419999999
  },
  {
    "location":"Arlen, TX",
    "lat":29.8414602,
    "lng":-95.2557901
  },
  {
    "location":"Melbourne, Australia",
    "lat":-37.814107,
    "lng":144.96328
  },
  {
    "location":"Cuba",
    "lat":21.521757,
    "lng":-77.781167
  },
  {
    "location":"Gilbert AZ",
    "lat":33.3528264,
    "lng":-111.789027
  },
  {
    "location":"Chyenne, Wyoming",
    "lat":41.1399814,
    "lng":-104.8202462
  },
  {
    "location":"usa",
    "lat":37.09024,
    "lng":-95.712891
  },
  {
    "location":"Harlem, USA",
    "lat":40.8115504,
    "lng":-73.9464769
  },
  {
    "location":"Atlanta Georgia",
    "lat":33.7489954,
    "lng":-84.3879824
  },
  {
    "location":"Hollywood, FL",
    "lat":26.0112014,
    "lng":-80.1494901
  },
  {
    "location":"Qu bec",
    "lat":31.2029295,
    "lng":121.4263996
  },
  {
    "location":"Hudson, NH",
    "lat":42.7647763,
    "lng":-71.43980739999999
  },
  {
    "location":"Pasadena, California",
    "lat":34.1477849,
    "lng":-118.1445155
  },
  {
    "location":"Reality USA",
    "lat":46.696828,
    "lng":-69.337077
  },
  {
    "location":"Victoria, British Columbia",
    "lat":48.4284207,
    "lng":-123.3656444
  },
  {
    "location":"Boston, MA.",
    "lat":42.3600825,
    "lng":-71.0588801
  },
  {
    "location":"Greeley",
    "lat":40.4233142,
    "lng":-104.7091322
  },
  {
    "location":"Mesa AZ",
    "lat":33.4151843,
    "lng":-111.8314724
  },
  {
    "location":"Burleson",
    "lat":32.5420821,
    "lng":-97.3208492
  },
  {
    "location":"Central New Jersey",
    "lat":39.829728,
    "lng":-74.9789595
  },
  {
    "location":"Johannesburg, South Africa.",
    "lat":-26.2041028,
    "lng":28.0473051
  },
  {
    "location":"Oak Brook, IL",
    "lat":41.8397865,
    "lng":-87.95355339999999
  },
  {
    "location":"Bear Country",
    "lat":40.2933812,
    "lng":-94.3156951
  },
  {
    "location":"Portland, Or",
    "lat":45.5230622,
    "lng":-122.6764816
  },
  {
    "location":"T rkiye",
    "lat":38.963745,
    "lng":35.243322
  },
  {
    "location":"World Traveler-Explore! LA, CA",
    "lat":34.0522342,
    "lng":-118.2436849
  },
  {
    "location":"The REAL America",
    "lat":29.8851459,
    "lng":-99.8124935
  },
  {
    "location":"Audtralia",
    "lat":-25.274398,
    "lng":133.775136
  },
  {
    "location":"Fort Valley Forge",
    "lat":40.5552515,
    "lng":-105.1138451
  },
  {
    "location":"Evans City, PA",
    "lat":40.7692321,
    "lng":-80.062838
  },
  {
    "location":"Maine, United States",
    "lat":45.253783,
    "lng":-69.4454689
  },
  {
    "location":"East Coast America",
    "lat":33.5941227,
    "lng":-117.8677399
  },
  {
    "location":"the usa",
    "lat":37.09024,
    "lng":-95.712891
  },
  {
    "location":"Miami Fl.",
    "lat":25.7616798,
    "lng":-80.1917902
  },
  {
    "location":"Utah, United States",
    "lat":39.3209801,
    "lng":-111.0937311
  },
  {
    "location":"Los Angeles",
    "lat":34.0522342,
    "lng":-118.2436849
  },
  {
    "location":"League City, TX",
    "lat":29.5074538,
    "lng":-95.0949303
  },
  {
    "location":"The Internet",
    "lat":15.1219947,
    "lng":105.8021808
  },
  {
    "location":"Made in NJ, Perfected in NYC",
    "lat":40.7127837,
    "lng":-74.0059413
  },
  {
    "location":"MIA",
    "lat":34.7302829,
    "lng":136.5085883
  },
  {
    "location":"Online",
    "lat":32.9066839,
    "lng":-96.6049468
  },
  {
    "location":"Orlando, Florida",
    "lat":28.5383355,
    "lng":-81.3792365
  },
  {
    "location":"in   co",
    "lat":39.5500507,
    "lng":-105.7820674
  },
  {
    "location":"Constantinople",
    "lat":41.0082376,
    "lng":28.9783589
  },
  {
    "location":"Boulder, CO",
    "lat":40.0149856,
    "lng":-105.2705456
  },
  {
    "location":"New Jersey | South Carolina",
    "lat":34.5744543,
    "lng":-80.58417589999999
  },
  {
    "location":"Mullingar, Co. Westmeath",
    "lat":53.5259334,
    "lng":-7.3381378
  },
  {
    "location":"euphoria",
    "lat":35.8344194,
    "lng":10.6286073
  },
  {
    "location":"W-NC",
    "lat":35.7595731,
    "lng":-79.01929969999999
  },
  {
    "location":"UNITED STATES OF AMERICA",
    "lat":37.09024,
    "lng":-95.712891
  },
  {
    "location":"Montana",
    "lat":46.8796822,
    "lng":-110.3625658
  },
  {
    "location":"State College, PA",
    "lat":40.7933949,
    "lng":-77.8600012
  },
  {
    "location":"Tax Ma Assachussettes",
    "lat":42.5305625,
    "lng":-71.5364151
  },
  {
    "location":"Mission, TX",
    "lat":26.2159066,
    "lng":-98.32529319999999
  },
  {
    "location":"Charleston, SC",
    "lat":32.7764749,
    "lng":-79.93105120000001
  },
  {
    "location":"Pomorskie, Polska",
    "lat":54.2944252,
    "lng":18.1531164
  },
  {
    "location":"1d af",
    "lat":33.93911,
    "lng":67.709953
  },
  {
    "location":"NY Italian Dem RetBanker n Fla",
    "lat":40.7127837,
    "lng":-74.0059413
  },
  {
    "location":"Fort Smith, AR",
    "lat":35.3859242,
    "lng":-94.39854749999999
  },
  {
    "location":"Columbia, MO",
    "lat":38.9517053,
    "lng":-92.3340724
  },
  {
    "location":"Columbus, Ohio",
    "lat":39.9611755,
    "lng":-82.99879419999999
  },
  {
    "location":"New France",
    "lat":49.1535137,
    "lng":6.1398853
  },
  {
    "location":"Asheville, NC",
    "lat":35.5950581,
    "lng":-82.5514869
  },
  {
    "location":"Global",
    "lat":31.9524799,
    "lng":-102.1732882
  },
  {
    "location":"Mount Crumpit",
    "lat":49.7144444,
    "lng":-123.1055555
  },
  {
    "location":"The Bay Area",
    "lat":37.8271784,
    "lng":-122.2913078
  },
  {
    "location":"804/434",
    "lat":61.6359155,
    "lng":28.2277297
  },
  {
    "location":"Mississippi",
    "lat":32.3546679,
    "lng":-89.3985283
  },
  {
    "location":"Beaufort, NC",
    "lat":34.7182174,
    "lng":-76.6638186
  },
  {
    "location":"anywhere",
    "lat":51.51364969999999,
    "lng":-0.1304505
  },
  {
    "location":"Our Old Line State",
    "lat":39.4226309,
    "lng":-76.7206078
  },
  {
    "location":"Grottoes, VA",
    "lat":38.2673516,
    "lng":-78.8258584
  },
  {
    "location":"Jerusalem, Israel",
    "lat":31.768319,
    "lng":35.21371
  },
  {
    "location":"All Over",
    "lat":49.680246,
    "lng":-116.0403956
  },
  {
    "location":"Anchorage",
    "lat":61.2180556,
    "lng":-149.9002778
  },
  {
    "location":"Long Beach, California",
    "lat":33.7700504,
    "lng":-118.1937395
  },
  {
    "location":"Liverpool",
    "lat":53.4083714,
    "lng":-2.9915726
  },
  {
    "location":"Homestead,Fl",
    "lat":25.4687224,
    "lng":-80.4775569
  },
  {
    "location":"East Wenatchee, WA",
    "lat":47.41568239999999,
    "lng":-120.2931263
  },
  {
    "location":"Near Kingston, New York",
    "lat":41.9270367,
    "lng":-73.9973608
  },
  {
    "location":"Livermore, Ca",
    "lat":37.6818745,
    "lng":-121.7680088
  },
  {
    "location":"AMERICA FIRST",
    "lat":32.7913116,
    "lng":-116.9446123
  },
  {
    "location":"NYC / BKLN /",
    "lat":40.692902,
    "lng":-73.9681413
  },
  {
    "location":"Bluebonnets in TX",
    "lat":26.37653,
    "lng":-98.8335791
  },
  {
    "location":"Liverpool, England",
    "lat":53.4083714,
    "lng":-2.9915726
  },
  {
    "location":"Tulsa OK",
    "lat":36.1539816,
    "lng":-95.99277500000001
  },
  {
    "location":"Delaware County, PA",
    "lat":39.907793,
    "lng":-75.3878525
  },
  {
    "location":"Southeastern NC",
    "lat":35.0317418,
    "lng":-78.8789537
  },
  {
    "location":"Dublin,Ireland",
    "lat":53.3498053,
    "lng":-6.2603097
  },
  {
    "location":"Chico, CA",
    "lat":39.7284944,
    "lng":-121.8374777
  },
  {
    "location":"Idaho Falls, ID",
    "lat":43.49165139999999,
    "lng":-112.0339645
  },
  {
    "location":"Northeast Tennessee",
    "lat":35.5174913,
    "lng":-86.5804473
  },
  {
    "location":"TomsRiver NJ Hallandale Bch,FL",
    "lat":27.6648274,
    "lng":-81.5157535
  },
  {
    "location":"Silicon Valley, CA",
    "lat":37.387474,
    "lng":-122.0575434
  },
  {
    "location":"Las Vegas, NV",
    "lat":36.1699412,
    "lng":-115.1398296
  },
  {
    "location":"julie",
    "lat":36.2917663,
    "lng":-79.6403364
  },
  {
    "location":"south wales uk",
    "lat":51.4909729,
    "lng":-2.7661124
  },
  {
    "location":"GOD BLESSED AMERICA",
    "lat":-33.0491343,
    "lng":-71.3440773
  },
  {
    "location":"Colorado River! Arizona",
    "lat":34.2928265,
    "lng":-113.3985014
  },
  {
    "location":"Upper Left Coast",
    "lat":-31.2145111,
    "lng":152.4103946
  },
  {
    "location":"planet earth",
    "lat":53.35701770000001,
    "lng":-2.0853567
  },
  {
    "location":"Michigan, U.S.A.",
    "lat":44.3148443,
    "lng":-85.60236429999999
  },
  {
    "location":"LEE'S SUMMIT MO",
    "lat":38.9108408,
    "lng":-94.3821724
  },
  {
    "location":"44.244273,7.769737",
    "lat":44.2471729,
    "lng":7.760724499999999
  },
  {
    "location":"Salt Lake City, Utah",
    "lat":40.7607793,
    "lng":-111.8910474
  },
  {
    "location":"Berkeley, CA",
    "lat":37.8715926,
    "lng":-122.272747
  },
  {
    "location":"Pompano Beach, FL",
    "lat":26.2378597,
    "lng":-80.1247667
  },
  {
    "location":"Clearwater, FL",
    "lat":27.9658533,
    "lng":-82.8001026
  },
  {
    "location":"90046 USA",
    "lat":34.1147313,
    "lng":-118.3637264
  },
  {
    "location":"Newnan, GA",
    "lat":33.3806716,
    "lng":-84.79965729999999
  },
  {
    "location":"Pennsylvania, USA",
    "lat":41.2033216,
    "lng":-77.1945247
  },
  {
    "location":"Middletown, CT",
    "lat":41.5623209,
    "lng":-72.6506488
  },
  {
    "location":"Moscow",
    "lat":55.755826,
    "lng":37.6173
  },
  {
    "location":"Fort Lauderdale, Florida",
    "lat":26.1224386,
    "lng":-80.13731740000001
  },
  {
    "location":"Tennessee, USA",
    "lat":35.5174913,
    "lng":-86.5804473
  },
  {
    "location":"durham, NC",
    "lat":35.9940329,
    "lng":-78.898619
  },
  {
    "location":"Connecticut, USA",
    "lat":41.6032207,
    "lng":-73.087749
  },
  {
    "location":"Eagan, MN",
    "lat":44.8041322,
    "lng":-93.1668858
  },
  {
    "location":"Singapour",
    "lat":1.352083,
    "lng":103.819836
  },
  {
    "location":"Paradise Coast, Florida #USA",
    "lat":28.3782999,
    "lng":-80.7520737
  },
  {
    "location":"Nova Scotia, Canada",
    "lat":44.68198659999999,
    "lng":-63.744311
  },
  {
    "location":"Arapahoe County, Colorado.",
    "lat":39.62031,
    "lng":-104.332644
  },
  {
    "location":"Red State Arizona, USA",
    "lat":34.5093821,
    "lng":-114.285595
  },
  {
    "location":"Milan-Italy",
    "lat":45.4654219,
    "lng":9.1859243
  },
  {
    "location":"Lake Wobegon",
    "lat":45.6696464,
    "lng":-94.73500399999999
  },
  {
    "location":"Syracuse",
    "lat":43.0481221,
    "lng":-76.14742439999999
  },
  {
    "location":"West Palm Beach, Florida",
    "lat":26.7153424,
    "lng":-80.0533746
  },
  {
    "location":"Monroe, MI",
    "lat":41.9164343,
    "lng":-83.3977101
  },
  {
    "location":"Wayne County",
    "lat":42.2790746,
    "lng":-83.33618799999999
  },
  {
    "location":"Ga/MS/WV",
    "lat":38.5976262,
    "lng":-80.4549026
  },
  {
    "location":"Egypt",
    "lat":26.820553,
    "lng":30.802498
  },
  {
    "location":"Barvaria",
    "lat":48.7904472,
    "lng":11.4978895
  },
  {
    "location":"Jacksonville Beach, FL",
    "lat":30.2841224,
    "lng":-81.3961338
  },
  {
    "location":"Zoetermeer, Zuid-Holland",
    "lat":52.060669,
    "lng":4.494025
  },
  {
    "location":"Suomi, Pietarsaari",
    "lat":63.6742439,
    "lng":22.712569
  },
  {
    "location":"North Hollywood California",
    "lat":34.187044,
    "lng":-118.3812562
  },
  {
    "location":"Seattle Area, WA",
    "lat":47.6579416,
    "lng":-122.3001486
  },
  {
    "location":"East&West Coasts & the South",
    "lat":3.950512799999999,
    "lng":13.914399
  },
  {
    "location":"St. Louis, Missouri",
    "lat":38.6270025,
    "lng":-90.19940419999999
  },
  {
    "location":"the next plain",
    "lat":52.9517855,
    "lng":0.8534671
  },
  {
    "location":"Northeast Tarrant County,Texas",
    "lat":32.7732044,
    "lng":-97.35165579999999
  },
  {
    "location":"Winchester",
    "lat":51.059771,
    "lng":-1.310142
  },
  {
    "location":"Seatac WA",
    "lat":47.4435903,
    "lng":-122.2960726
  },
  {
    "location":"El Paso, TX",
    "lat":31.7618778,
    "lng":-106.4850217
  },
  {
    "location":"Marion, Alabama, Arkansas",
    "lat":32.8737137,
    "lng":-92.1530757
  },
  {
    "location":"Information is FREE",
    "lat":41.4071435,
    "lng":-75.6628214
  },
  {
    "location":"Weston, Florida, USA",
    "lat":26.1003654,
    "lng":-80.3997748
  },
  {
    "location":"Natal RN Brasil",
    "lat":-5.7792569,
    "lng":-35.200916
  },
  {
    "location":"New Brunswick, Canada",
    "lat":46.5653163,
    "lng":-66.46191639999999
  },
  {
    "location":"St Louis, MO",
    "lat":38.6270025,
    "lng":-90.19940419999999
  },
  {
    "location":"Pecos, TX   Lubbock, TX",
    "lat":33.590688,
    "lng":-101.8540532
  },
  {
    "location":"The Country of Texas",
    "lat":33.8756616,
    "lng":-98.57543849999999
  },
  {
    "location":"Ruidoso,New Mexico",
    "lat":33.3672525,
    "lng":-105.6588485
  },
  {
    "location":"God Bless America!",
    "lat":-33.0491343,
    "lng":-71.3440773
  },
  {
    "location":"Minnesota, USA",
    "lat":46.729553,
    "lng":-94.6858998
  },
  {
    "location":"NOVA",
    "lat":45.3432501,
    "lng":14.3101295
  },
  {
    "location":"Frederick, MD",
    "lat":39.41426879999999,
    "lng":-77.4105409
  },
  {
    "location":"everywere",
    "lat":37.6658757,
    "lng":-91.8479332
  },
  {
    "location":"Rockville, Maryland",
    "lat":39.0839973,
    "lng":-77.1527578
  },
  {
    "location":"lower east side, new york",
    "lat":40.715033,
    "lng":-73.9842724
  },
  {
    "location":"Northern California",
    "lat":38.8375215,
    "lng":-120.8958242
  },
  {
    "location":"West lake, Va",
    "lat":37.973455,
    "lng":-76.474215
  },
  {
    "location":"kentucky",
    "lat":37.8393332,
    "lng":-84.2700179
  },
  {
    "location":"Fort Wayne, IN",
    "lat":41.079273,
    "lng":-85.1393513
  },
  {
    "location":"Rochester, New York",
    "lat":43.16103,
    "lng":-77.6109219
  },
  {
    "location":"Laguna Beach, CA 92651",
    "lat":33.5422475,
    "lng":-117.7831104
  },
  {
    "location":"Saint Johnsbury, Vermont",
    "lat":44.4192627,
    "lng":-72.0151183
  },
  {
    "location":"toccoa",
    "lat":34.5773206,
    "lng":-83.3323851
  },
  {
    "location":"Philippines, US and Sweden",
    "lat":12.879721,
    "lng":121.774017
  },
  {
    "location":"Kennesaw, GA",
    "lat":34.0234337,
    "lng":-84.6154897
  },
  {
    "location":"Northville, MI",
    "lat":42.4311464,
    "lng":-83.4832692
  },
  {
    "location":"Top of the world, Ma!",
    "lat":42.4072107,
    "lng":-71.3824374
  },
  {
    "location":"Central Harlem, Manhattan",
    "lat":40.7934744,
    "lng":-73.9216971
  },
  {
    "location":"Indianapolis",
    "lat":39.768403,
    "lng":-86.158068
  },
  {
    "location":"Linton, Indiana",
    "lat":39.0347666,
    "lng":-87.1658458
  },
  {
    "location":"Monmouth County, NJ",
    "lat":40.2589455,
    "lng":-74.12399599999999
  },
  {
    "location":"Tampa Fl",
    "lat":27.950575,
    "lng":-82.4571776
  },
  {
    "location":"London NW6",
    "lat":51.5437594,
    "lng":-0.1970833
  },
  {
    "location":"Compton, CA",
    "lat":33.8958492,
    "lng":-118.2200712
  },
  {
    "location":"Cameron, NC",
    "lat":35.3268226,
    "lng":-79.255303
  },
  {
    "location":"In the Merica of the U.S.",
    "lat":40.2671941,
    "lng":-86.1349019
  },
  {
    "location":"Ancaster, Ontario",
    "lat":43.2177791,
    "lng":-79.98728349999999
  },
  {
    "location":"Daventry, England",
    "lat":52.257473,
    "lng":-1.164947
  },
  {
    "location":"Infantado",
    "lat":38.836506,
    "lng":-8.7374949
  },
  {
    "location":"mexico",
    "lat":23.634501,
    "lng":-102.552784
  },
  {
    "location":"Natal, Rio Grande do Norte",
    "lat":-5.7792569,
    "lng":-35.200916
  },
  {
    "location":"Trenton, NJ",
    "lat":40.2170534,
    "lng":-74.7429384
  },
  {
    "location":"Santa Barbara, Ca.",
    "lat":34.4208305,
    "lng":-119.6981901
  },
  {
    "location":"Santa Clara, CA",
    "lat":37.3541079,
    "lng":-121.9552356
  },
  {
    "location":"The United States of America",
    "lat":37.09024,
    "lng":-95.712891
  },
  {
    "location":"Dallas Texas",
    "lat":32.7766642,
    "lng":-96.79698789999999
  },
  {
    "location":"Bellevue, WA",
    "lat":47.610377,
    "lng":-122.2006786
  },
  {
    "location":"Bay Area, CA",
    "lat":37.8271784,
    "lng":-122.2913078
  },
  {
    "location":"innerearth",
    "lat":-35.0284721,
    "lng":138.5719179
  },
  {
    "location":"Louisiana",
    "lat":30.9842977,
    "lng":-91.96233269999999
  },
  {
    "location":"Crown Heights, Brooklyn, NY",
    "lat":40.6681032,
    "lng":-73.9447994
  },
  {
    "location":"Palos Verdes, California",
    "lat":33.7444613,
    "lng":-118.3870173
  },
  {
    "location":"North East Coast",
    "lat":26.6405582,
    "lng":-80.0582743
  },
  {
    "location":"Ohio - the swing state",
    "lat":41.0567332,
    "lng":-83.6565055
  },
  {
    "location":"La Haya, Holanda Meridional",
    "lat":52.0704978,
    "lng":4.3006999
  },
  {
    "location":"NorCal",
    "lat":38.8375215,
    "lng":-120.8958242
  },
  {
    "location":"Laughlin, Nevada USA",
    "lat":35.1677771,
    "lng":-114.5730208
  },
  {
    "location":"Bell",
    "lat":31.134411,
    "lng":-97.5247243
  },
  {
    "location":"Moulton,Alabama",
    "lat":34.4812062,
    "lng":-87.29335329999999
  },
  {
    "location":"seattle",
    "lat":47.6062095,
    "lng":-122.3320708
  },
  {
    "location":"Cliffside Park, NJ",
    "lat":40.8214894,
    "lng":-73.9876388
  },
  {
    "location":"Birmingham Alabama",
    "lat":33.5206608,
    "lng":-86.80248999999999
  },
  {
    "location":"Wisconsin",
    "lat":43.7844397,
    "lng":-88.7878678
  },
  {
    "location":"portugal",
    "lat":39.39987199999999,
    "lng":-8.224454
  },
  {
    "location":"The Oval Office",
    "lat":53.6047476,
    "lng":10.0267357
  },
  {
    "location":"cedartown",
    "lat":34.0112715,
    "lng":-85.25658229999999
  },
  {
    "location":"CA,USA",
    "lat":36.778261,
    "lng":-119.4179324
  },
  {
    "location":"Corona, CA",
    "lat":33.8752935,
    "lng":-117.5664384
  },
  {
    "location":"Somewhere West of Philly",
    "lat":39.9525839,
    "lng":-75.1652215
  },
  {
    "location":"Dominican Republic",
    "lat":18.735693,
    "lng":-70.162651
  },
  {
    "location":"Mars",
    "lat":49.2836803,
    "lng":16.3597539
  },
  {
    "location":"ama, tx",
    "lat":35.21848689999999,
    "lng":-101.7052103
  },
  {
    "location":"swimming",
    "lat":43.036376,
    "lng":-75.075836
  },
  {
    "location":"Hico, TX",
    "lat":31.9829253,
    "lng":-98.0336454
  },
  {
    "location":"New York, New York, USA",
    "lat":40.7127837,
    "lng":-74.0059413
  },
  {
    "location":"Chicago",
    "lat":41.8781136,
    "lng":-87.6297982
  },
  {
    "location":"Palmetto State",
    "lat":33.836081,
    "lng":-81.1637245
  },
  {
    "location":"The Ideal City",
    "lat":14.5901132,
    "lng":121.0441278
  },
  {
    "location":"Here and Now",
    "lat":40.9048936,
    "lng":-79.8311391
  },
  {
    "location":"ABAC",
    "lat":31.4814823,
    "lng":-83.52592419999999
  },
  {
    "location":"Telegraph Hill, San Francisco",
    "lat":37.8013407,
    "lng":-122.4056674
  },
  {
    "location":"South Eastern North Carolina",
    "lat":35.0317418,
    "lng":-78.8789537
  },
  {
    "location":"Northern Califorina",
    "lat":38.8375215,
    "lng":-120.8958242
  },
  {
    "location":"Houston Texas",
    "lat":29.7604267,
    "lng":-95.3698028
  },
  {
    "location":"Bradenton, Fl.",
    "lat":27.4989278,
    "lng":-82.5748194
  },
  {
    "location":"New York New York.",
    "lat":40.7127837,
    "lng":-74.0059413
  },
  {
    "location":"Burbank,  A, California USA",
    "lat":34.1808392,
    "lng":-118.3089661
  },
  {
    "location":"Here",
    "lat":15.8867551,
    "lng":74.1797766
  },
  {
    "location":"Upstate NY",
    "lat":40.70988759999999,
    "lng":-74.015429
  },
  {
    "location":"Melbourne Australia",
    "lat":-37.814107,
    "lng":144.96328
  },
  {
    "location":"Home Sweet Home",
    "lat":21.9312425,
    "lng":86.74244639999999
  },
  {
    "location":"Azalean Territory",
    "lat":21.4495171,
    "lng":-104.888127
  },
  {
    "location":"Alabama Gulf Coast",
    "lat":30.8266861,
    "lng":-87.7749754
  },
  {
    "location":"South East England.",
    "lat":52.3555177,
    "lng":-1.1743197
  },
  {
    "location":"Twitty City",
    "lat":35.3139382,
    "lng":-100.2362302
  },
  {
    "location":"Oklahoma city suburb",
    "lat":35.454759,
    "lng":-97.635678
  },
  {
    "location":"Salem, OR",
    "lat":44.9428975,
    "lng":-123.0350963
  },
  {
    "location":"Cape Town | Port Elizabeth",
    "lat":-33.9356681,
    "lng":25.4741424
  },
  {
    "location":"Erie, PA",
    "lat":42.12922409999999,
    "lng":-80.085059
  },
  {
    "location":"Washington, DC",
    "lat":38.9071923,
    "lng":-77.0368707
  },
  {
    "location":"Tellico Plains,Tennessee",
    "lat":35.362855,
    "lng":-84.29408699999999
  },
  {
    "location":"Ottawa, Canada; Austin, Texas",
    "lat":45.4215296,
    "lng":-75.69719309999999
  },
  {
    "location":"California",
    "lat":36.778261,
    "lng":-119.4179324
  },
  {
    "location":"On Earth",
    "lat":37.02591110000001,
    "lng":-107.8771579
  },
  {
    "location":"Newcastle Upon Tyne, England",
    "lat":54.978252,
    "lng":-1.61778
  },
  {
    "location":"EARTH",
    "lat":34.2331373,
    "lng":-102.4107493
  },
  {
    "location":"Beach",
    "lat":46.5831751,
    "lng":-90.91951619999999
  },
  {
    "location":"Bolton, Lancashire, England",
    "lat":53.60329549999999,
    "lng":-2.46006
  },
  {
    "location":"Albion",
    "lat":42.243097,
    "lng":-84.7530304
  },
  {
    "location":"TOYAMA pref . JAPAN",
    "lat":36.6952907,
    "lng":137.2113383
  },
  {
    "location":"3D @ Perth , Australia",
    "lat":-32.0696297,
    "lng":115.9008653
  },
  {
    "location":"North",
    "lat":22.5009081,
    "lng":114.1558258
  },
  {
    "location":"Nice",
    "lat":43.7101728,
    "lng":7.261953200000001
  },
  {
    "location":"Mid-South",
    "lat":35.5265069,
    "lng":-90.3562654
  },
  {
    "location":"Washington Heights, NYC",
    "lat":40.8417082,
    "lng":-73.9393554
  },
  {
    "location":"Colchester, England",
    "lat":51.895927,
    "lng":0.8918740000000001
  },
  {
    "location":"The New York City",
    "lat":40.7127837,
    "lng":-74.0059413
  },
  {
    "location":"Killeen, TX",
    "lat":31.1171194,
    "lng":-97.72779589999999
  },
  {
    "location":"Hartford, CT",
    "lat":41.76371109999999,
    "lng":-72.6850932
  },
  {
    "location":"Atlanta, GA",
    "lat":33.7489954,
    "lng":-84.3879824
  },
  {
    "location":"Los Cabos, Baja California Sur",
    "lat":22.8905327,
    "lng":-109.9167371
  },
  {
    "location":"Redlands, California",
    "lat":34.0555693,
    "lng":-117.1825381
  },
  {
    "location":"Ohio",
    "lat":40.4172871,
    "lng":-82.90712300000001
  },
  {
    "location":"Back in Texas",
    "lat":35.3647702,
    "lng":-100.6098567
  },
  {
    "location":"610   740",
    "lat":34.4544496,
    "lng":-82.4400476
  },
  {
    "location":"Beautiful TN Mountains",
    "lat":35.1265332,
    "lng":-85.30880640000001
  },
  {
    "location":"East of China West of Iceland",
    "lat":25.615311,
    "lng":119.850394
  },
  {
    "location":"Vicenza, Italy",
    "lat":45.5454787,
    "lng":11.5354214
  },
  {
    "location":"buffalo, ny",
    "lat":42.88644679999999,
    "lng":-78.8783689
  },
  {
    "location":"Charlotte, NC",
    "lat":35.2270869,
    "lng":-80.8431267
  },
  {
    "location":"513",
    "lat":24.5723036,
    "lng":46.88406089999999
  },
  {
    "location":"Lubbock, Texas",
    "lat":33.5778631,
    "lng":-101.8551665
  },
  {
    "location":"DC metro area",
    "lat":38.967392,
    "lng":-77.0314337
  },
  {
    "location":"on the left",
    "lat":46.2817864,
    "lng":-81.99199399999999
  },
  {
    "location":"Netherlands",
    "lat":52.132633,
    "lng":5.291265999999999
  },
  {
    "location":"Montrose, MI",
    "lat":43.1766935,
    "lng":-83.8927439
  },
  {
    "location":"modesto ca",
    "lat":37.63909719999999,
    "lng":-120.9968782
  },
  {
    "location":"South Florida, USA",
    "lat":27.6648274,
    "lng":-81.5157535
  },
  {
    "location":"Somewhere, PA",
    "lat":41.314149,
    "lng":-75.2110932
  },
  {
    "location":"Middleport,NY",
    "lat":43.2125581,
    "lng":-78.4764143
  },
  {
    "location":"San Francisco Bay Area",
    "lat":37.8271784,
    "lng":-122.2913078
  },
  {
    "location":"Kansas",
    "lat":39.011902,
    "lng":-98.4842465
  },
  {
    "location":"Oakland, Calif",
    "lat":37.8043637,
    "lng":-122.2711137
  },
  {
    "location":"High Country, Colorado",
    "lat":39.9275329,
    "lng":-105.7847217
  },
  {
    "location":"Minneapolis, Minnesota",
    "lat":44.977753,
    "lng":-93.2650108
  },
  {
    "location":"Spring Hill, FL",
    "lat":28.4831682,
    "lng":-82.5369872
  },
  {
    "location":"Wilkes-Barre, PA",
    "lat":41.2459149,
    "lng":-75.88130749999999
  },
  {
    "location":"Los Angeles, Ca",
    "lat":34.0522342,
    "lng":-118.2436849
  },
  {
    "location":"everywhere",
    "lat":37.6658757,
    "lng":-91.8479332
  },
  {
    "location":"River Ridge, LA",
    "lat":29.9602043,
    "lng":-90.2156316
  },
  {
    "location":"Kentucky! !!!",
    "lat":37.8393332,
    "lng":-84.2700179
  },
  {
    "location":"Land of the free",
    "lat":-0.006257599999999999,
    "lng":34.6046752
  },
  {
    "location":"canada",
    "lat":56.130366,
    "lng":-106.346771
  },
  {
    "location":"L.A.(Lower Alabama)",
    "lat":34.5414525,
    "lng":-86.6300773
  },
  {
    "location":"Leadville, CO",
    "lat":39.2508229,
    "lng":-106.2925238
  },
  {
    "location":"I79 corridor",
    "lat":51.60066279999999,
    "lng":5.5204188
  },
  {
    "location":"Rock Hill, SC",
    "lat":34.9248667,
    "lng":-81.02507840000001
  },
  {
    "location":"Denmark, SC",
    "lat":33.3226546,
    "lng":-81.1423236
  },
  {
    "location":"Hereford,Arizona",
    "lat":31.43843249999999,
    "lng":-110.0978554
  },
  {
    "location":"The Left Coast",
    "lat":36.3749097,
    "lng":43.1632296
  },
  {
    "location":"texas",
    "lat":31.9685988,
    "lng":-99.9018131
  },
  {
    "location":"Douglas County, Colorado",
    "lat":39.2587106,
    "lng":-104.9388853
  },
  {
    "location":"Born in NC - Now in North East",
    "lat":35.7595731,
    "lng":-79.01929969999999
  },
  {
    "location":"Topanga, CA",
    "lat":34.0919452,
    "lng":-118.6021321
  },
  {
    "location":"Midtown, New York City",
    "lat":40.7549309,
    "lng":-73.9840195
  },
  {
    "location":"Qu bec",
    "lat":31.2029295,
    "lng":121.4263996
  },
  {
    "location":"Corona,California",
    "lat":33.8752935,
    "lng":-117.5664384
  },
  {
    "location":"Columbus, OH via NJ",
    "lat":39.926352,
    "lng":-82.822994
  },
  {
    "location":"Indiana",
    "lat":40.2671941,
    "lng":-86.1349019
  },
  {
    "location":"Somerville, MA",
    "lat":42.3875968,
    "lng":-71.0994968
  },
  {
    "location":"New South Wales, Australia",
    "lat":-33.864174,
    "lng":151.2052868
  },
  {
    "location":"Antarctica",
    "lat":-82.86275189999999,
    "lng":135
  },
  {
    "location":"Mukilteo, WA",
    "lat":47.9445396,
    "lng":-122.3045815
  },
  {
    "location":"Tuscumbia, Alabama",
    "lat":34.7312005,
    "lng":-87.70253
  },
  {
    "location":"Doylestown",
    "lat":40.3101063,
    "lng":-75.1298939
  },
  {
    "location":"Freedom",
    "lat":50.0053767,
    "lng":36.2314594
  },
  {
    "location":"Northern New Jersey, America.",
    "lat":39.8157936,
    "lng":-86.1508582
  },
  {
    "location":"Des Moines, IA",
    "lat":41.6005448,
    "lng":-93.6091064
  },
  {
    "location":"Bend-Oregon",
    "lat":44.0581728,
    "lng":-121.3153096
  },
  {
    "location":"Denton, TX",
    "lat":33.2148412,
    "lng":-97.13306829999999
  },
  {
    "location":"Susanville,ca",
    "lat":40.4162842,
    "lng":-120.6530063
  },
  {
    "location":"nomadic",
    "lat":12.8368211,
    "lng":10.2532215
  },
  {
    "location":"Virginia Beach, VA",
    "lat":36.8529263,
    "lng":-75.97798499999999
  },
  {
    "location":"Pennington, NJ",
    "lat":40.3284402,
    "lng":-74.790718
  },
  {
    "location":"Land of Sky Blue Waters",
    "lat":32.6124638,
    "lng":-116.9723975
  },
  {
    "location":"Watchung, NJ",
    "lat":40.63788,
    "lng":-74.4509863
  },
  {
    "location":"Mid Ohio",
    "lat":40.08383,
    "lng":-83.0262168
  },
  {
    "location":"Savannah, GA",
    "lat":32.0835407,
    "lng":-81.09983419999999
  },
  {
    "location":"Manhattan, NY",
    "lat":40.7830603,
    "lng":-73.9712488
  },
  {
    "location":"Greenwood, IN",
    "lat":39.6136578,
    "lng":-86.10665259999999
  },
  {
    "location":"People's Republic of New York",
    "lat":40.7127837,
    "lng":-74.0059413
  },
  {
    "location":"Decatur, GA",
    "lat":33.7748275,
    "lng":-84.2963123
  },
  {
    "location":"Saskatchewan, Canada",
    "lat":52.9399159,
    "lng":-106.4508639
  },
  {
    "location":"Greater Philadelphia Area, PA",
    "lat":41.2033216,
    "lng":-77.1945247
  },
  {
    "location":"Brussels, Belgium",
    "lat":50.8503396,
    "lng":4.3517103
  },
  {
    "location":"near mexico tx",
    "lat":31.9685988,
    "lng":-99.9018131
  },
  {
    "location":"California Conservative",
    "lat":52.9189175,
    "lng":-1.4828879
  },
  {
    "location":"India",
    "lat":20.593684,
    "lng":78.96288
  },
  {
    "location":"Tampa, Florida",
    "lat":27.950575,
    "lng":-82.4571776
  },
  {
    "location":"Terryville, CT",
    "lat":41.6781533,
    "lng":-73.01093929999999
  },
  {
    "location":"Oakland, California",
    "lat":37.8043637,
    "lng":-122.2711137
  },
  {
    "location":"Okemos, MI",
    "lat":42.722257,
    "lng":-84.4274744
  },
  {
    "location":"Providence & Martha's Vineyard",
    "lat":41.8239891,
    "lng":-71.4128343
  },
  {
    "location":"Victoria",
    "lat":-37.4713077,
    "lng":144.7851531
  },
  {
    "location":"Jersey",
    "lat":49.214439,
    "lng":-2.13125
  },
  {
    "location":"Cincinnati, OH",
    "lat":39.1031182,
    "lng":-84.5120196
  },
  {
    "location":"florida   usa",
    "lat":27.6648274,
    "lng":-81.5157535
  },
  {
    "location":"Simmelk r, Danmark",
    "lat":55.8148108,
    "lng":8.9593056
  },
  {
    "location":"Iowa",
    "lat":41.8780025,
    "lng":-93.097702
  },
  {
    "location":"Saint Petersburg, Russia",
    "lat":59.9342802,
    "lng":30.3350986
  },
  {
    "location":"Pierre, SD",
    "lat":44.3683156,
    "lng":-100.3509665
  },
  {
    "location":"Wesley Chapel, FL",
    "lat":28.182893,
    "lng":-82.3641751
  },
  {
    "location":"Staten Island, NY",
    "lat":40.5795317,
    "lng":-74.1502007
  },
  {
    "location":"Vancouver, Canada",
    "lat":49.2827291,
    "lng":-123.1207375
  },
  {
    "location":"soon to be portland, or",
    "lat":45.5230622,
    "lng":-122.6764816
  },
  {
    "location":"CNY State",
    "lat":43.2994285,
    "lng":-74.21793260000001
  },
  {
    "location":"Ashland, Kentucky",
    "lat":38.4784144,
    "lng":-82.63793869999999
  },
  {
    "location":"galesville wi",
    "lat":44.0816282,
    "lng":-91.3490376
  },
  {
    "location":"Amherst, MA",
    "lat":42.3732216,
    "lng":-72.5198537
  },
  {
    "location":"Salem OR",
    "lat":44.9428975,
    "lng":-123.0350963
  },
  {
    "location":"Naples, FL",
    "lat":26.1420358,
    "lng":-81.7948103
  },
  {
    "location":"Bozeman",
    "lat":45.6769979,
    "lng":-111.0429339
  },
  {
    "location":"Worcester, MA  US",
    "lat":42.2625932,
    "lng":-71.8022934
  },
  {
    "location":"Jefferson City, MO",
    "lat":38.57670170000001,
    "lng":-92.1735164
  },
  {
    "location":"Waxahachie, TX",
    "lat":32.3865312,
    "lng":-96.8483311
  },
  {
    "location":"Torino, Piemonte",
    "lat":45.070312,
    "lng":7.686856499999999
  },
  {
    "location":"Porto, Portugal",
    "lat":41.1579438,
    "lng":-8.629105299999999
  },
  {
    "location":"Everywhere, United States",
    "lat":37.6658757,
    "lng":-91.8479332
  },
  {
    "location":"France and Worldwide",
    "lat":25.2225183,
    "lng":55.162764
  },
  {
    "location":"Brooklyn Fire",
    "lat":40.6924461,
    "lng":-73.9871027
  },
  {
    "location":"New Orleans",
    "lat":29.95106579999999,
    "lng":-90.0715323
  },
  {
    "location":"North of Atlanta",
    "lat":33.7489954,
    "lng":-84.3879824
  },
  {
    "location":"Vista, California",
    "lat":33.2000368,
    "lng":-117.2425355
  },
  {
    "location":"Mountain View, CA",
    "lat":37.3860517,
    "lng":-122.0838511
  },
  {
    "location":"LCPHQ DuPage County IL",
    "lat":41.8243831,
    "lng":-88.0900762
  },
  {
    "location":"Zaragoza",
    "lat":41.6488226,
    "lng":-0.8890853
  },
  {
    "location":"Atlanta, GA -- Tuscaloosa, AL",
    "lat":33.2098407,
    "lng":-87.56917349999999
  },
  {
    "location":"Tomball, tx",
    "lat":30.0971621,
    "lng":-95.6160549
  },
  {
    "location":"Whitetop VA",
    "lat":36.6015078,
    "lng":-81.62566919999999
  },
  {
    "location":"Owosso, MI",
    "lat":42.9978049,
    "lng":-84.1766358
  },
  {
    "location":"Portland OR",
    "lat":45.5230622,
    "lng":-122.6764816
  },
  {
    "location":"Eastside of Cleveland",
    "lat":41.7901082,
    "lng":-86.0790766
  },
  {
    "location":"Grape country",
    "lat":29.8885285,
    "lng":-95.1072837
  },
  {
    "location":"Westmont, IL",
    "lat":41.7958639,
    "lng":-87.9756175
  },
  {
    "location":"new york",
    "lat":40.7127837,
    "lng":-74.0059413
  },
  {
    "location":"Heidelberg, Germany",
    "lat":49.3987524,
    "lng":8.6724335
  },
  {
    "location":"Nome Alaska",
    "lat":64.5011111,
    "lng":-165.4063889
  },
  {
    "location":"FL Panhandle    *TRUMP MAGZN*",
    "lat":27.6648274,
    "lng":-81.5157535
  },
  {
    "location":"Dallas, Republic of Texas",
    "lat":32.7745255,
    "lng":-96.8247288
  },
  {
    "location":"Bernie Sanders, USA",
    "lat":35.1558866,
    "lng":-77.1617062
  },
  {
    "location":"Earth",
    "lat":34.2331373,
    "lng":-102.4107493
  },
  {
    "location":"Scenic City, USA",
    "lat":37.7882901,
    "lng":-122.4864053
  },
  {
    "location":"Alexandria, VA",
    "lat":38.8048355,
    "lng":-77.0469214
  },
  {
    "location":"New Mexico, USA",
    "lat":34.5199402,
    "lng":-105.8700901
  },
  {
    "location":"Rancho Santa Margarita, CA",
    "lat":33.640855,
    "lng":-117.603104
  },
  {
    "location":"Rushville OH",
    "lat":39.76451,
    "lng":-82.4315441
  },
  {
    "location":"Trinidad and Tobago",
    "lat":10.691803,
    "lng":-61.222503
  },
  {
    "location":"Mid West, USA",
    "lat":43.41136040000001,
    "lng":-106.2800242
  },
  {
    "location":"over there",
    "lat":42.0403568,
    "lng":-93.6540066
  },
  {
    "location":"The Sunshine State",
    "lat":27.6648274,
    "lng":-81.5157535
  },
  {
    "location":"Lexington, KY",
    "lat":38.0405837,
    "lng":-84.5037164
  },
  {
    "location":"North central Jersey",
    "lat":39.7280689,
    "lng":-104.9194668
  },
  {
    "location":"TEXAS",
    "lat":31.9685988,
    "lng":-99.9018131
  },
  {
    "location":"Lincoln, NE",
    "lat":40.8257625,
    "lng":-96.6851982
  },
  {
    "location":"Santa Monica, CA",
    "lat":34.0194543,
    "lng":-118.4911912
  },
  {
    "location":"/pol/",
    "lat":50.0589878,
    "lng":16.3058764
  },
  {
    "location":"Scottsdale, Arizona",
    "lat":33.4941704,
    "lng":-111.9260519
  },
  {
    "location":"Frankfurt am Main, Deutschland",
    "lat":50.1109221,
    "lng":8.6821267
  },
  {
    "location":"Silicon Valley",
    "lat":37.387474,
    "lng":-122.0575434
  },
  {
    "location":"Houston by way of NOLA",
    "lat":29.7604267,
    "lng":-95.3698028
  },
  {
    "location":"Fort Collins CO",
    "lat":40.5852602,
    "lng":-105.084423
  },
  {
    "location":"Santa Rosa, CA",
    "lat":38.440429,
    "lng":-122.7140548
  },
  {
    "location":"Tucson ,AZ.",
    "lat":32.2217429,
    "lng":-110.926479
  },
  {
    "location":"Avon, OH",
    "lat":41.4517093,
    "lng":-82.03542250000001
  },
  {
    "location":"New York, NY 10018",
    "lat":40.755322,
    "lng":-73.9932872
  },
  {
    "location":"Toronto, New York, Washington",
    "lat":43.665728,
    "lng":-79.4019935
  },
  {
    "location":"Kingston, Jamaica",
    "lat":18.0178743,
    "lng":-76.8099041
  },
  {
    "location":"Laramie, WY",
    "lat":41.3113669,
    "lng":-105.5911007
  },
  {
    "location":"T rkiye/istanbul",
    "lat":41.0082376,
    "lng":28.9783589
  },
  {
    "location":"Portugal",
    "lat":39.39987199999999,
    "lng":-8.224454
  },
  {
    "location":"Ham, England",
    "lat":51.367137,
    "lng":-1.525966
  },
  {
    "location":"NEPA",
    "lat":23.2911165,
    "lng":88.7566152
  },
  {
    "location":"Vegas sportsbook bettin ponies",
    "lat":36.1699412,
    "lng":-115.1398296
  },
  {
    "location":"Fullerton, CA",
    "lat":33.8703596,
    "lng":-117.9242966
  },
  {
    "location":"Beverly Hills, California",
    "lat":34.0736204,
    "lng":-118.4003563
  },
  {
    "location":"Palm Springs",
    "lat":33.8302961,
    "lng":-116.5452921
  },
  {
    "location":"Peoria, Illinois",
    "lat":40.6936488,
    "lng":-89.5889864
  },
  {
    "location":"Mobile, AL",
    "lat":30.6953657,
    "lng":-88.0398912
  },
  {
    "location":"Cane Ridge, TN",
    "lat":36.01091230000001,
    "lng":-86.6989224
  },
  {
    "location":"NY Metropolitan Area.",
    "lat":41.7604055,
    "lng":-88.2602321
  },
  {
    "location":"Copley, OH",
    "lat":41.09894389999999,
    "lng":-81.64456849999999
  },
  {
    "location":"City of Angels",
    "lat":34.0522342,
    "lng":-118.2436849
  },
  {
    "location":"North Providence, RI, USA",
    "lat":41.8535518,
    "lng":-71.46766389999999
  },
  {
    "location":"Great Northwest",
    "lat":29.4922794,
    "lng":-98.65730839999999
  },
  {
    "location":"Great America",
    "lat":42.52947229999999,
    "lng":-71.44308099999999
  },
  {
    "location":"electric city|",
    "lat":34.5794745,
    "lng":-82.71321449999999
  },
  {
    "location":"La Cuidad de la Furia, PR",
    "lat":44.8130662,
    "lng":10.1005577
  },
  {
    "location":"Ottawa via Saskatoon",
    "lat":52.1246325,
    "lng":-106.7141457
  },
  {
    "location":"O R * WA * MT * CA * IA * IL",
    "lat":40.6331249,
    "lng":-89.3985283
  },
  {
    "location":"Boulder County",
    "lat":40.1512114,
    "lng":-105.5005483
  },
  {
    "location":"Broadview Heights, OH",
    "lat":41.3139426,
    "lng":-81.6851271
  },
  {
    "location":"Trump Tower",
    "lat":40.7625,
    "lng":-73.974167
  },
  {
    "location":"Atlanta",
    "lat":33.7489954,
    "lng":-84.3879824
  },
  {
    "location":"4/5 + main + justin +4",
    "lat":30.62670859999999,
    "lng":-92.7728762
  },
  {
    "location":"Freedom, USA",
    "lat":44.6733376,
    "lng":-89.4566098
  },
  {
    "location":"Jackson, NJ",
    "lat":40.0918895,
    "lng":-74.35874729999999
  },
  {
    "location":"Middletown, KY",
    "lat":38.2453487,
    "lng":-85.53884889999999
  },
  {
    "location":"York County, Pa",
    "lat":39.9512496,
    "lng":-76.7336521
  },
  {
    "location":"Las Vegas",
    "lat":36.1699412,
    "lng":-115.1398296
  },
  {
    "location":"Newport, KY",
    "lat":39.091449,
    "lng":-84.4957757
  },
  {
    "location":"Tyrus",
    "lat":46.18539089999999,
    "lng":-93.9412497
  },
  {
    "location":"Innisfree",
    "lat":38.7559128,
    "lng":-91.04230550000001
  },
  {
    "location":"Texas",
    "lat":31.9685988,
    "lng":-99.9018131
  },
  {
    "location":"SoCal",
    "lat":49.7968257,
    "lng":19.365964
  },
  {
    "location":"Madrid, ESPA A",
    "lat":40.4167754,
    "lng":-3.7037902
  },
  {
    "location":"Kissimmee, Fl.",
    "lat":28.2919557,
    "lng":-81.40757099999999
  },
  {
    "location":"NJ-USA-World",
    "lat":40.1669738,
    "lng":-74.0353056
  },
  {
    "location":"Tuscaloosa, AL",
    "lat":33.2098407,
    "lng":-87.56917349999999
  },
  {
    "location":"New York City, USA #1",
    "lat":40.7127837,
    "lng":-74.0059413
  },
  {
    "location":"Utah, USA",
    "lat":39.3209801,
    "lng":-111.0937311
  },
  {
    "location":"Houston, TX, USA",
    "lat":29.7604267,
    "lng":-95.3698028
  },
  {
    "location":"K rklareli Merkez, K rklareli",
    "lat":41.735472,
    "lng":27.224369
  },
  {
    "location":"Arkansas, USA",
    "lat":35.20105,
    "lng":-91.8318334
  },
  {
    "location":"SF//CA",
    "lat":37.7749295,
    "lng":-122.4194155
  },
  {
    "location":"USA Arizona",
    "lat":34.0489281,
    "lng":-111.0937311
  },
  {
    "location":"Wollombi Valley",
    "lat":-32.8889013,
    "lng":151.2490419
  },
  {
    "location":"mareee",
    "lat":53.23209,
    "lng":-8.95826
  },
  {
    "location":"NYC | BK",
    "lat":40.7127837,
    "lng":-74.0059413
  },
  {
    "location":"Wyoming",
    "lat":43.0759678,
    "lng":-107.2902839
  },
  {
    "location":"Pasadena Ca",
    "lat":34.1477849,
    "lng":-118.1445155
  },
  {
    "location":"Midwest USA",
    "lat":43.41136040000001,
    "lng":-106.2800242
  },
  {
    "location":"sailing",
    "lat":28.123507,
    "lng":117.096112
  },
  {
    "location":"Detroit, Michigan",
    "lat":42.331427,
    "lng":-83.0457538
  },
  {
    "location":"LONG BEACH, CA",
    "lat":33.7700504,
    "lng":-118.1937395
  },
  {
    "location":"Ohio- So. Cal- Texas",
    "lat":31.9685988,
    "lng":-99.9018131
  },
  {
    "location":"New Albany Indiana",
    "lat":38.2856247,
    "lng":-85.8241312
  },
  {
    "location":"Huntsville, AL",
    "lat":34.7303688,
    "lng":-86.5861037
  },
  {
    "location":"Belgium",
    "lat":50.503887,
    "lng":4.469936
  },
  {
    "location":"Harrisburg, PA",
    "lat":40.2731911,
    "lng":-76.8867008
  },
  {
    "location":"ATL",
    "lat":33.7489954,
    "lng":-84.3879824
  },
  {
    "location":"Northern New Jersey",
    "lat":39.8157936,
    "lng":-86.1508582
  },
  {
    "location":"The Goldfields",
    "lat":-30.1094244,
    "lng":121.2626366
  },
  {
    "location":"Shepherd",
    "lat":30.4979813,
    "lng":-94.9966005
  },
  {
    "location":"Guadalajara",
    "lat":20.6596988,
    "lng":-103.3496092
  },
  {
    "location":"At Peace",
    "lat":53.6134899,
    "lng":-2.3542311
  },
  {
    "location":"New Zealand",
    "lat":-40.900557,
    "lng":174.885971
  },
  {
    "location":"los angeles",
    "lat":34.0522342,
    "lng":-118.2436849
  },
  {
    "location":"South Louisiana",
    "lat":30.9842977,
    "lng":-91.96233269999999
  },
  {
    "location":"Mascot TN",
    "lat":36.0611959,
    "lng":-83.745735
  },
  {
    "location":"610/973",
    "lat":41.5945951,
    "lng":-83.4862165
  },
  {
    "location":"Las Vegas, NV",
    "lat":36.1699412,
    "lng":-115.1398296
  },
  {
    "location":"Made in USA",
    "lat":39.4645636,
    "lng":-84.401814
  },
  {
    "location":"Hollywood CA",
    "lat":34.0928092,
    "lng":-118.3286614
  },
  {
    "location":"Russell, KY",
    "lat":38.5173028,
    "lng":-82.6976631
  },
  {
    "location":"Deep South U. S. of A.",
    "lat":33.2720241,
    "lng":-84.6404439
  },
  {
    "location":"B-Lo, New York",
    "lat":14.497421,
    "lng":121.0225728
  },
  {
    "location":"Monroe, GA",
    "lat":33.7948364,
    "lng":-83.713229
  },
  {
    "location":"Las Vegas Nevada",
    "lat":36.1699412,
    "lng":-115.1398296
  },
  {
    "location":"Tacoma, Washington",
    "lat":47.2528768,
    "lng":-122.4442906
  },
  {
    "location":"Rensselaer,NY",
    "lat":42.6425794,
    "lng":-73.742898
  },
  {
    "location":"State of Mind",
    "lat":32.2384323,
    "lng":-80.86083060000001
  },
  {
    "location":"Arizona/Central Calif",
    "lat":33.3389747,
    "lng":-112.0924005
  },
  {
    "location":"jacksonville, fl",
    "lat":30.3321838,
    "lng":-81.65565099999999
  },
  {
    "location":"Lowell, MA",
    "lat":42.6334247,
    "lng":-71.31617179999999
  },
  {
    "location":"Belleview, FL",
    "lat":29.0552578,
    "lng":-82.0623105
  },
  {
    "location":"Strasbourg (France)",
    "lat":48.5734053,
    "lng":7.752111299999999
  },
  {
    "location":"(currently) London, UK",
    "lat":51.5008588,
    "lng":-0.2395761
  },
  {
    "location":"Albion MI",
    "lat":42.243097,
    "lng":-84.7530304
  },
  {
    "location":"Sunny Southern California",
    "lat":40.3275027,
    "lng":-123.921505
  },
  {
    "location":"Manlius, NY",
    "lat":43.0020107,
    "lng":-75.9768632
  },
  {
    "location":"M nchen, Germany",
    "lat":48.1351253,
    "lng":11.5819806
  },
  {
    "location":"Huntington WV",
    "lat":38.4192496,
    "lng":-82.44515400000002
  },
  {
    "location":"Elmira, NY",
    "lat":42.0897965,
    "lng":-76.8077338
  },
  {
    "location":"tonawanda ny",
    "lat":43.0203347,
    "lng":-78.880315
  },
  {
    "location":"The World",
    "lat":25.216667,
    "lng":55.166667
  },
  {
    "location":"Jersey City",
    "lat":40.72815749999999,
    "lng":-74.0776417
  },
  {
    "location":"McKinney, TX",
    "lat":33.1972465,
    "lng":-96.6397822
  },
  {
    "location":"Katy, TX.",
    "lat":29.7857853,
    "lng":-95.8243956
  },
  {
    "location":"Sheffield, AL",
    "lat":34.7650887,
    "lng":-87.6986407
  },
  {
    "location":"Southern CA",
    "lat":33.9506222,
    "lng":-118.202151
  },
  {
    "location":"Box Springs, Georgia",
    "lat":32.5326403,
    "lng":-84.6610372
  },
  {
    "location":"Salisbury 16'",
    "lat":35.6848001,
    "lng":-80.4526156
  },
  {
    "location":"Lutz, FL",
    "lat":28.1511243,
    "lng":-82.4614831
  },
  {
    "location":"We The People",
    "lat":41.2213553,
    "lng":-80.3557505
  },
  {
    "location":"Nantucket, MA",
    "lat":41.2834704,
    "lng":-70.099451
  },
  {
    "location":"Northwest Arkansas",
    "lat":36.0031934,
    "lng":-92.2433487
  },
  {
    "location":"Minneapolis, MN",
    "lat":44.977753,
    "lng":-93.2650108
  },
  {
    "location":"Raytown, MO",
    "lat":39.0086171,
    "lng":-94.46356379999999
  },
  {
    "location":"Sherman Oaks",
    "lat":34.1489719,
    "lng":-118.451357
  },
  {
    "location":"Terni",
    "lat":42.5636168,
    "lng":12.6426604
  },
  {
    "location":"Las Vegas,Clark County, NV",
    "lat":36.1699412,
    "lng":-115.1398296
  },
  {
    "location":"Small town, USA",
    "lat":35.0387149,
    "lng":-77.60625
  },
  {
    "location":"Marqu s de Buenos Ayres.",
    "lat":24.1307288,
    "lng":-110.3044406
  },
  {
    "location":"Porvoo, Suomi",
    "lat":60.3931919,
    "lng":25.6652739
  },
  {
    "location":"sc: pauleeg803",
    "lat":33.836081,
    "lng":-81.1637245
  },
  {
    "location":"Pennsylvania",
    "lat":41.2033216,
    "lng":-77.1945247
  },
  {
    "location":"Yorktown, VA",
    "lat":37.2387556,
    "lng":-76.5096731
  },
  {
    "location":"Phoenix AZ",
    "lat":33.4483771,
    "lng":-112.0740373
  },
  {
    "location":"Russia,",
    "lat":61.52401,
    "lng":105.318756
  },
  {
    "location":"New Orleans, LA  Gulfport MS",
    "lat":30.4036267,
    "lng":-89.13452339999999
  },
  {
    "location":"Springfield, IL",
    "lat":39.78172130000001,
    "lng":-89.6501481
  },
  {
    "location":"Paris, France",
    "lat":48.856614,
    "lng":2.3522219
  },
  {
    "location":"New York NY",
    "lat":40.7127837,
    "lng":-74.0059413
  },
  {
    "location":"DeSoto County, MS",
    "lat":34.9065453,
    "lng":-89.9626799
  },
  {
    "location":"Georgia",
    "lat":32.1656221,
    "lng":-82.9000751
  },
  {
    "location":"Williamsburg, Brooklyn",
    "lat":40.7081156,
    "lng":-73.9570696
  },
  {
    "location":"New World",
    "lat":31.30416989999999,
    "lng":-94.35939929999999
  },